OBJECTID,STOPNAME,TRAPEZESTOPABBR,RUCUSSTOPABBR,STOPID,LATITUDE,LONGITUDE,ACCESSIBILITYMASK,ATSTREET,ONSTREET,POSITION,ORIENTATION,SERVICEPLANNINGSTOPTYPE,SHELTER,INSERT_TIMESTAMP,SDE_ID,SIGNUPID,SUPERVISOR_DISTRICT,shape,Neighborhoods,SF Find Neighborhoods,Current Police Districts,Current Supervisor Districts,Analysis Neighborhoods
42619,Polk St&Lombard St NW-NS/BZ,POLKLOM0,POLKLOMB,5990,37.80167,-122.42303,0,LOMBARD ST,POLK ST,NS,NW,BZ,0,20230512124615,14816781,141,None,POINT (-122.42303 37.80167),107,107,4,6,32
40917,Chestnut St&Fillmore St NE-NS/BZ,CHESFIL0,CHESFILL,3941,37.800845,-122.436245,0,WEBSTER ST,CHESTNUT ST,NS,NE,BZ,1,20230512124615,14809056,141,None,POINT (-122.43625 37.800846),17,17,4,6,13
41525,Geary Blvd&Arguello Blvd NE-NS/BZ,GEARARG0,GEARARGL,4287,37.781376,-122.458737,0,ARGUELLO BLVD,GEARY BLVD,NS,NE,BZ,1,20230512124615,14810393,141,None,POINT (-122.45874 37.781376),11,11,8,6,31
40679,3rd St&Folsom St N-FS/BZ,.3STFOL0,3STFOLS,3124,37.784204,-122.399326,0,CLEMENTINA ST,03RD ST,FS,NO,BZ,1,20230512124615,14808200,141,None,POINT (-122.39932 37.784203),32,32,1,10,8
43044,Potrero Ave&24th St SW-FS/BZ,POTR24S0,POTR24ST,6039,37.75267,-122.40649,0,24TH ST,POTRERO AVE,FS,SW,BZ,0,20230512124615,14815720,141,None,POINT (-122.40649 37.75267),53,53,3,2,20
43002,UCSF Medical Center (Mariposa) OB NE-FS/SI,3ST MRP0,3ST MRP0,7356,37.764391,-122.388853,0,MARIPOSA ST,3RD ST,FS,NE,SI,0,20230512124615,14818712,141,None,POINT (-122.388855 37.764393),34,34,2,10,26
41658,Leavenworth St&Pine St SE-NS/BB,LEAVPIN1,LEAVPINE,4868,37.790159,-122.415479,0,PINE ST,LEAVENWORTH ST,NS,SE,BZ,0,20230512124615,14810868,141,None,POINT (-122.41548 37.790157),50,50,6,3,21
41688,Mansell St&San Bruno Ave W-FS/BZ,MANSSBR1,MANSSBRO,5350,37.721541,-122.401394,0,SAN BRUNO AVE,MANSELL ST,FS,WE,BZ,0,20230512124615,14811281,141,None,POINT (-122.4014 37.721542),91,91,2,9,25
41451,Eddy St&Buchanan St SW-NS/BZ,EDDYBUC1,EDDYBUCH,4473,37.781767,-122.429141,0,BUCHANAN ST,EDDY ST,NS,SW,BZ,0,20230512124615,14810620,141,None,POINT (-122.42914 37.78177),97,97,4,11,39
42712,345 Warren Dr E-MB/SB,WARNH341,WARNH345,6908,37.755402,-122.461312,0,None,WARREN DR,MB,EA,None,0,20230512124615,14816846,141,None,POINT (-122.46131 37.7554),111,111,7,8,14
42334,Sutter St&Baker St NE-NS/BZ,SUTTBAK0,SUTTBAKR,6585,37.784889,-122.443067,0,BAKER ST,SUTTER ST,NS,NE,BZ,1,20230512124615,14814995,141,None,POINT (-122.44307 37.78489),103,103,8,6,30
41915,Laguna Honda Blvd&Idora Ave E-NS/SB,LGHNIDO1,LGHNIDOR,5249,37.743999,-122.456407,0,IDORA AVE,LAGUNA HONDA BLVD,NS,EA,None,0,20230512124615,14812011,141,None,POINT (-122.456406 37.744),49,49,7,8,41
43353,John Muir Dr&Skyline Blvd S-FS/SB,J M SKY0,J M SKYL,5132,37.718738,-122.499913,0,SKYLINE BLVD,JOHN MUIR DR,FS,SO,None,0,20230512124615,14814393,141,None,POINT (-122.499916 37.71874),43,43,10,8,16
43432,San Bruno Ave&Wayland St E-NS/BZ,SBROWYL1,SBROWYLD,6373,37.72637,-122.40301,0,WAYLAND ST,SAN BRUNO AVE,NS,EA,BZ,0,20230512124615,14819068,141,None,POINT (-122.40301 37.72637),91,91,2,2,25
42533,Corbett Ave&Iron Aly W-NS/PS,CRBTIRON,CRBTIRON,4182,37.75783,-122.444743,0,IRON ALY,CORBETT AVE,NS,WE,None,0,20230512124615,14818182,141,None,POINT (-122.44474 37.75783),47,47,7,5,5
42149,Market St&6th St S-NS/SI,MRKT.6S1,MRKT.6ST,5647,37.782102,-122.4104,0,6TH ST,MARKET ST,NS,SO,SI,0,20230512124615,14813064,141,None,POINT (-122.4104 37.7821),32,32,5,10,34
41832,Geneva Ave&Moscow St N-FS/BZ,GNVAMSC0,GNVAMSCW,4889,37.713332,-122.433957,0,MOSCOW ST,GENEVA AVE,FS,NO,BZ,0,20230512124615,14811444,141,None,POINT (-122.43396 37.713333),90,90,9,1,7
41900,Monterey Blvd&Foerster St NW-FS/BZ,MTRYFOE0,MTRYFOER,5432,37.731615,-122.449166,0,FOERSTER ST,MONTEREY BLVD,FS,NW,BZ,1,20230512124615,14812132,141,None,POINT (-122.449165 37.731613),95,95,9,8,41
43069,Paul Ave&Gould St NW-FS/PS,PAULGUL1,PAULGULD,5902,37.723012,-122.397946,0,GOULD ST,PAUL AVE,FS,NW,None,0,20230512124615,14817222,141,None,POINT (-122.39795 37.72301),86,86,2,9,1
42871,Hayes St&Steiner St NW-FS/BZ,HAYSSTE0,HAYSSTEI,5011,37.775627,-122.433203,0,STEINER ST,HAYES ST,FS,NW,BZ,1,20230512124615,14814002,141,None,POINT (-122.433205 37.775627),23,23,4,11,9
41136,Carl St&Hillway Ave SE-FS/FL,CARLHLW1,CARLHLWY,3913,37.764932,-122.456512,0,HILLWAY AVE,CARL ST,NS,SW,None,1,20230512124615,14809435,141,None,POINT (-122.45651 37.76493),110,110,7,11,14
43445,Sunset Blvd&Wawona St SE-NS/SB,SUNSWAW1,SUNSWAWO,6562,37.736541,-122.493911,0,WAWONA ST,SUNSET BLVD,NS,SE,None,0,20230512124615,14814524,141,None,POINT (-122.49391 37.73654),40,40,10,7,35
41372,Donahue St&Innes Ave E-FS/PS,DNHUINE0,DNHUINES,4440,37.729002,-122.369913,0,None,None,FS,EA,None,0,20230512124615,14810209,141,None,POINT (-122.36991 37.729004),78,78,2,9,1
41880,Hyde St&Vallejo St NE-FS,HYDEVAL0,HYDEVALL,5090,37.79744,-122.41863,0,VALLEJO ST,HYDE ST,FS,NE,None,0,20230512124615,14812081,141,None,POINT (-122.41863 37.79744),107,107,6,3,32
40839,33rd Ave&Anza St SE-NS/PS,33AVANZ1,33AVANZA,3552,37.777692,-122.493077,0,ANZA ST,33RD AVE,NS,SE,None,1,20230512124615,14808854,141,None,POINT (-122.49308 37.77769),8,8,8,4,29
43251,Ulloa St&Lenox Way NW-FS,ULOALEN0,ULOALENX,6738,37.741125,-122.466155,0,LENOX WAY,ULLOA ST,FS,NW,None,1,20230512124615,14814364,141,None,POINT (-122.466156 37.741123),46,46,10,8,41
41822,Haight St&Fillmore St NW-FS/BZ,HAITFIL0,HAITFILL,4952,37.77214,-122.43076,0,FILLMORE ST,HAIGHT ST,FS,NW,BZ,1,20230512124615,14811662,141,None,POINT (-122.43076 37.77214),26,26,4,11,9
40789,11th St&Market St E-NS/SB,11STMRK1,11STMRKT,3244,37.7755,-122.41852,0,MARKET ST,11TH ST,NS,EA,None,0,20230512124615,14808626,141,None,POINT (-122.41852 37.7755),32,32,5,10,34
43474,Blanken Ave&Nueva Ave NE-NS/SB,BLKNNUV1,BLKNNUVA,7008,37.71121,-122.39723,0,NUEVA AVE,BLANKEN AVE,NS,SE,None,0,20230512124615,14816074,141,None,POINT (-122.39723 37.71121),89,89,2,9,1
42025,Mission St&Allison St S-NS/BZ,MISSALS1,MISSALSN,5575,37.71448,-122.44264,0,ALLISON ST,MISSION ST,NS,SO,BZ,0,20230512124615,14812306,141,None,POINT (-122.44264 37.71448),58,58,9,1,7
41595,Folsom St&22ND St SW-FS/BB,FOLS22S0,FOLS22ST,4676,37.75546,-122.414481,0,22ND ST,FOLSOM ST,FS,SW,None,0,20230512124615,14810717,141,None,POINT (-122.41448 37.75546),53,53,3,2,20
41577,Foerster St&Flood Ave SE-NS/PS,FOERFLO1,FOERFLOD,4649,37.729795,-122.448765,0,FLOOD AVE,FOERSTER ST,NS,SE,None,0,20230512124615,14810965,141,None,POINT (-122.44877 37.729794),95,95,9,8,41
43239,Quintara St&35th Ave SW-NS,QUIN35A1,QUIN35AV,6159,37.74783,-122.49334,0,35TH AVE,QUINTARA ST,NS,SW,None,0,20230512124615,14814325,141,None,POINT (-122.49334 37.74783),40,40,10,7,35
42268,Quintara St&Funston Ave SW-NS/PS,QUINFUN1,QUINFUNS,6171,37.748834,-122.46964,0,FUNSTON AVE,QUINTARA ST,NS,SW,None,0,20230512124615,14816511,141,None,POINT (-122.46964 37.748833),44,44,10,8,41
42245,4TH STREET & KING STREET SE-NS,4STKNG0,None,7405,37.776251,-122.393933,0,BERRY ST,04TH ST,None,None,None,0,20230512124615,14813304,141,None,POINT (-122.393936 37.776253),34,34,1,10,4
41144,Connecticut St&18TH St SE-NS/BZ,CONN18S1,CONN18ST,4126,37.76243,-122.39741,0,18TH ST,CONNECTICUT ST,NS,SE,BZ,1,20230512124615,14809674,141,None,POINT (-122.39741 37.76243),54,54,2,9,26
43601,Right Of Way&20th St NE-FS/SB,ROW 20S1,ROW 20ST,6215,37.758229,-122.427795,0,20TH ST,MUNI RAIL - J RROW,NS,SE,None,0,20230512124615,14817688,141,None,POINT (-122.427795 37.75823),37,37,3,5,5
40727,7th St&Mission St NE-FS/BZ,.7STMIS1,7STMISS,3195,37.779327,-122.411032,0,STEVENSON ST,07TH ST,NS,EA,BZ,0,20230512124615,14808450,141,None,POINT (-122.41103 37.779327),32,32,5,10,34
42668,Ripley St&Folsom St NE-NS/SB,RIPLFOL0,RIPLFOLS,6210,37.74418,-122.41315,0,FOLSOM ST,RIPLEY ST,NS,NE,None,0,20230512124615,14813804,141,None,POINT (-122.41315 37.74418),83,83,9,2,2
42914,Sawyer St&Visitacion Ave NE-NS/PS,SAWYVIS1,None,7333,37.713345,-122.414443,0,VISITACION AVE,SAWYER ST,None,None,None,0,20230512124615,14817053,141,None,POINT (-122.414444 37.713345),75,75,9,9,40
43142,Persia Ave&Naples St W-NS/PS,PERSNAP0,PERSNAPL,5917,37.720853,-122.431356,0,NAPLES ST,PERSIA AVE,NS,WE,None,0,20230512124615,14814279,141,None,POINT (-122.43136 37.72085),90,90,9,1,7
42883,Park Presidio Blvd&Fulton St NE-FS,PKPRFUL1,PKPRFULT,5950,37.773219,-122.471653,0,PARK PRESIDIO BLVD,FULTON ST,FS,NE,FL,1,20230512124615,14815480,141,None,POINT (-122.47166 37.77322),5,5,8,4,11
42858,Hyde St&Greenwich St SE-NS,HYDEGNW0,HYDEGNWH,5073,37.800993,-122.419322,0,GREENWICH ST,HYDE ST,NS,SE,None,0,20230512124615,14813960,141,None,POINT (-122.41932 37.800995),107,107,6,6,32
42119,O'Shaughnessy Blvd&Malta Dr NE-FS,OSHAMAL1,OSHAMALT,5832,37.736611,-122.443301,0,MALTA DR,O SHAUGHNESSY BLVD,FS,NE,None,0,20230512124615,14813006,141,None,POINT (-122.4433 37.73661),96,96,9,5,10
42094,Lincoln Way&23rd Ave SW-NS/BZ,LWAY23A1,LWAY23AV,5313,37.765195,-122.481632,0,23RD AVE,LINCOLN WY,NS,SW,BZ,1,20230512124615,14812531,141,None,POINT (-122.48163 37.765194),39,39,10,7,35
43793,Union St&Pierce St SW-NS/BZ,UNINPIE1,UNINPIER,6778,37.796589,-122.438883,0,PIERCE ST,UNION ST,NS,SW,BZ,1,20230512124615,14817925,141,None,POINT (-122.43888 37.79659),14,14,4,6,13
42980,Palou Ave&Newhall St E-NS/PS,PALUNEW0,PALUNEWH,5878,37.735028,-122.392657,0,NEWHALL ST,PALOU AVE,NS,WE,None,0,20230512124615,14817116,141,None,POINT (-122.392654 37.735027),87,87,2,9,1
43359,Newcomb Ave&Newhall St E-NS/SB,NEWCNEW1,NEWCNEWH,5490,37.736304,-122.391522,0,NEWHALL ST,NEWCOMB AVE,NS,EA,None,0,20230512124615,14814410,141,None,POINT (-122.391525 37.736305),86,86,2,9,1
42954,Ocean Ave&Dorado Ter NE-NS,OCENDRD0,OCENDRDO,5787,37.724957,-122.461059,0,DORADO TER,OCEAN AVE,NS,NE,SI,0,20230512124615,14814030,141,None,POINT (-122.46106 37.724957),68,68,10,8,41
42191,Portola Dr&San Lorenzo Ave SE-FS,PORTSNL1,PORTSNLR,6120,37.73993,-122.46368,0,SAN LORENZO AVE,PORTOLA DR,FS,SE,None,0,20230512124615,14813534,141,None,POINT (-122.46368 37.73993),116,116,10,8,41
40985,Bradford St&Bernal Heights Blvd SW,BRFDBHT1,BRFDBHTS,3709,37.74286,-122.4094,0,BERNAL HEIGHTS BLVD,BRADFORD ST,FS,SW,None,0,20230512124615,14809129,141,None,POINT (-122.4094 37.74286),83,83,9,2,2
41767,Judah St&43rd Ave NE-NS/SI,JUDA43A0,JUDA43AV,5213,37.760598,-122.502574,0,43RD AVE,JUDAH ST,NS,NE,SI,0,20230512124615,14811527,141,None,POINT (-122.50257 37.760597),39,39,10,7,35
41235,945 Ellsworth St SW-NS/PS,EWTHH940,EWTHH945,4566,37.73281,-122.41776,0,ALEMANY BLVD,ELLSWORTH ST,NS,SW,None,0,20230512124615,14809814,141,None,POINT (-122.41776 37.73281),83,83,9,2,2
41096,30th Ave&Taraval St SE-NS/PS,30AVTAR1,30AVTARA,3533,37.74241,-122.48743,0,TARAVAL ST,30TH AVE,NS,SE,FL,0,20230512124615,14809299,141,None,POINT (-122.48743 37.74241),40,40,10,7,35
43281,Monterey Blvd&San Jacinto Way E-NS,MTRYSNJ0,MTRYSNJA,5443,37.732033,-122.463965,0,SAN JACINTO WAY,MONTEREY BLVD,NS,EA,None,0,20230512124615,14815902,141,None,POINT (-122.46397 37.732033),69,69,10,8,41
43916,Lake Merced & Lakeshore S-NS/SB,L M LKS0,,7851,37.72942,-122.494056,,SUNSET BLVD,LAKE MERCED BLVD,,,,,20230512124615,14819959,141,None,POINT (-122.49406 37.72942),43,43,10,8,16
42667,Sacramento St&Octavia St SE-NS/BZ,SACOOCT1,SACOOCTA,6310,37.79061,-122.4276,0,LAGUNA ST,SACRAMENTO ST,FS,SE,BZ,0,20230512124615,14813802,141,None,POINT (-122.4276 37.79061),102,102,4,6,30
42765,Yerba Buena Ave&Saint Elmo Wy NW-NS,Y B SEL0,Y B SELM,6990,37.732623,-122.458719,0,SAINT ELMO WAY,YERBA BUENA AVE,NS,NW,None,0,20230512124615,14813876,141,None,POINT (-122.45872 37.732624),69,69,9,8,41
41442,Fulton St&25TH Ave NW-FS/BZ,FULT25A0,FULT25AV,4748,37.772591,-122.484306,0,25TH AVE,FULTON ST,FS,NW,BZ,1,20230512124615,14810499,141,None,POINT (-122.48431 37.77259),8,8,8,4,29
41410,Fulton St&La Playa SE-FS/BZ,FULTLAP1,FULTLAPL,4228,37.77134,-122.50939,0,LA PLAYA ST,FULTON ST,FS,SE,BZ,1,20230512124615,14810023,141,None,POINT (-122.50939 37.77134),9,9,8,4,12
41231,Castro St&14TH St NW-NS/BZ,CTRO14S0,CTRO14ST,4308,37.76742,-122.43571,0,14TH ST,CASTRO ST,NS,NW,BZ,0,20230512124615,14809810,141,None,POINT (-122.43571 37.76742),112,112,7,5,5
43500,Ocean Ave&Miramar Ave-NS,OCENMRMR,OCENMRMR,7102,37.72426,-122.45834,0,MIRAMAR AVE,OCEAN AVE,NS,SW,None,0,20230512124615,14817650,141,None,POINT (-122.45834 37.72426),64,64,10,8,24
41085,26th St&De Haro St NE-NS/SB,26STDHR1,26STDHRO,3516,37.75086,-122.40015,0,DE HARO ST,26TH ST,NS,NE,None,0,20230512124615,14809279,141,None,POINT (-122.40015 37.75086),54,54,2,9,26
41135,Carl St&Hillway Ave NE-MB,CARLHLW0,CARLHLWY,3912,37.765003,-122.456561,0,HILLWAY AVE,CARL ST,NS,NE,None,0,20230512124615,14809424,141,None,POINT (-122.45656 37.765003),110,110,7,11,14
41406,Duncan St&Amber Dr SW-NS/PS,DUNCAMBS,DUNCAMBR,4453,37.7452,-122.44141,0,AMBER DR,DUNCAN ST,NS,SW,FL,0,20230512124615,14810019,141,None,POINT (-122.44141 37.7452),57,57,9,5,22
41006,19th Ave&Winston Dr NW-NS/SI,19AVWINO,19AVWINS,3403,37.727017,-122.474937,0,WINSTON DR,19TH AVE,NS,NW,FL,1,20230512124615,14808908,141,None,POINT (-122.47494 37.727016),41,41,10,8,16
43705,Silver Ave&Alemany Blvd E-NS/PS,SILVALE1,SILVALEM,6393,37.729794,-122.433256,0,ALEMANY BLVD,SILVER AVE,NS,EA,FL,0,20230512124615,14816267,141,None,POINT (-122.43326 37.729794),94,94,9,1,28
42060,Market St&Front St N-NS/BZ,MRKTFRN0,MRKTFRNT,5671,37.79192,-122.39815,0,FRONT ST,MARKET ST,NS,NO,BZ,1,20230512124615,14812772,141,None,POINT (-122.39815 37.79192),108,108,6,3,8
41526,Geary Blvd&Arguello Blvd SE-FS/BZ,GEARARG1,GEARARGL,4288,37.781153,-122.458692,0,ARGUELLO BLVD,GEARY BLVD,FS,SE,BZ,1,20230512124615,14810394,141,None,POINT (-122.458694 37.781155),12,12,8,4,18
42551,Mission St&Highland Ave SW-FS/BZ,MISSHIG0,MISSHIGH,5597,37.73706,-122.4242,0,HIGHLAND AVE,MISSION ST,FS,SW,BZ,0,20230512124615,14818253,141,None,POINT (-122.4242 37.73706),61,61,9,5,2
41653,Lawton St&Lomita Ave SW-NS/PS,LAWTLMT1,LAWTLMTA,4861,37.75916,-122.47269,0,LOMITA AVE,LAWTON ST,NS,SW,FL,0,20230512124615,14810863,141,None,POINT (-122.47269 37.75916),44,44,10,8,14
43753,University St&Bacon St SE-NS,UNIVBAC0,UNIVBACN,6789,37.72499,-122.41339,0,BACON ST,UNIVERSITY ST,NS,SE,FL,0,20230512124615,14814805,141,None,POINT (-122.41339 37.72499),91,91,2,2,25
42962,Sunset Blvd&Ortega St NE-FS/SB,SUNSORT1,SUNSORTG,6543,37.751798,-122.49502,0,ORTEGA ST,SUNSET BLVD,FS,NE,None,0,20230512124615,14815558,141,None,POINT (-122.49502 37.751797),39,39,10,7,35
41265,Brazil Ave&Athens St W-NS/PS,BRZLATH0,BRZLATHN,3759,37.72166,-122.42857,0,ATHENS ST,BRAZIL AVE,NS,WE,FL,0,20230512124615,14809588,141,None,POINT (-122.42857 37.72166),90,90,9,1,7
42155,Mission St&Onondaga Ave N-NS/BZ,MISSONO1,MISSONON,5609,37.721282,-122.437483,0,ONONDAGA AVE,MISSION ST,NS,NO,BZ,1,20230512124615,14813102,141,None,POINT (-122.437485 37.721283),80,80,9,1,28
43671,Skyline Blvd&Sloat Blvd SE-NS/PS,SKYLSLO1,SKYLSLOA,6433,37.733693,-122.49667,0,39TH AVE,SKYLINE BLVD,NS,SE,None,0,20230512124615,14814700,141,None,POINT (-122.49667 37.733692),43,43,10,8,35
43398,Sansome St&Washington St NE-FS/BZ,SANSWAS0,SANSWASH,6337,37.79597,-122.40165,0,WASHINGTON ST,SANSOME ST,FS,NE,BZ,1,20230512124615,14816014,141,None,POINT (-122.40165 37.79597),106,106,6,3,6
43026,Silver Ave&Merrill St S-NS/PS,SILVMER0,SILVMERL,6412,37.731332,-122.408994,0,MERRILL ST,SILVER AVE,NS,SO,None,0,20230512124615,14814187,141,None,POINT (-122.409 37.73133),91,91,2,2,25
41637,Eureka St&21ST St SE-NS/PS,ERKA21SE,ERKA21ST,4539,37.755813,-122.43773,0,21ST ST,EUREKA ST,NS,SE,None,0,20230512124615,14810832,141,None,POINT (-122.43773 37.755814),115,115,3,5,22
42136,Diamond St&25TH St NW-NS/PS,DIAM25S0,DIAM25ST,4372,37.74965,-122.43621,0,25TH ST,DIAMOND ST,NS,NW,None,0,20230512124615,14813177,141,None,POINT (-122.43621 37.74965),84,84,3,5,22
43411,Nevada St&Cortland Ave NW-NS/PS,NVDACOR1,NVDACORT,5770,37.73992,-122.41141,0,CORTLAND AVE,NEVADA ST,NS,NW,None,0,20230512124615,14817563,141,None,POINT (-122.41141 37.73992),83,83,9,2,2
40978,Bosworth St&Elk St NW-FS/SB,BOSWELK1,BOSWELK,3697,37.735005,-122.440093,0,ELK ST,BOSWORTH ST,FS,NW,None,1,20230512124615,14809119,141,None,POINT (-122.440094 37.735004),96,96,9,5,10
42820,Saint Francis&Santa Ana NE-NS/SB,STFRSNA0,STFRSNAN,6505,37.734941,-122.467849,0,SANTA ANA AVE,SAINT FRANCIS BLVD,NS,NE,None,0,20230512124615,14818508,141,None,POINT (-122.46785 37.73494),116,116,10,8,41
40775,19th Ave&Ortega St NE-FS/BB,19AVORT1,19AVORTG,3379,37.75272,-122.47619,0,ORTEGA ST,19TH AVE,FS,NE,BZ,0,20230512124615,14808056,141,None,POINT (-122.47619 37.75272),44,44,10,8,14
43545,St Charles Ave&Alemany Blvd SW-FS,STCHALE0,STCHALEM,6484,37.71028,-122.46933,0,ALEMANY BLVD,ST CHARLES AVE,FS,SW,FL,0,20230512124615,14814607,141,None,POINT (-122.46933 37.71028),65,65,10,8,24
41465,Davis St&Pine St W-MB/SB,DAVSPIN0,DAVSPINE,4347,37.792608,-122.397532,0,BEALE ST,DAVIS ST,MB,WE,None,0,20230512124615,14810651,141,None,POINT (-122.39753 37.792606),108,108,6,3,8
42935,3rd St&Mission Rock St S-FS/SB,.3STMSR2,3ST 4ST,3016,37.772618,-122.389786,0,MISSION ROCK ST,3RD ST,FS,SW,BZ,0,20230512124615,14818585,141,None,POINT (-122.389786 37.772617),34,34,1,10,4
41429,Folsom St&8TH St E-FS/BZ,FOLS 8S1,FOLS 8ST,4662,37.775115,-122.409773,0,8TH ST,FOLSOM ST,FS,EA,BZ,0,20230512124615,14810452,141,None,POINT (-122.409775 37.775116),32,32,1,10,34
43631,Rhode Island St&Alameda St SE-NS/SB,R ISALA1,R ISALAM,6202,37.768573,-122.402843,0,ALAMEDA ST,RHODE ISLAND ST,NS,SE,None,0,20230512124615,14819249,141,None,POINT (-122.40284 37.768574),33,33,1,9,4
42517,Cortland Ave&Elsie St W-NS/BZ,CORTELS0,CORTELSE,4150,37.7397,-122.41969,0,ELSIE ST,CORTLAND AVE,NS,WE,BZ,0,20230512124615,14816682,141,None,POINT (-122.41969 37.7397),61,61,9,2,2
41121,California St&6TH Ave NW-FS/BB,CALI 6A0,CALI 6AV,3824,37.785069,-122.464641,0,06TH AVE,CALIFORNIA ST,FS,NW,BZ,1,20230512124615,14809372,141,None,POINT (-122.46464 37.78507),4,4,8,4,11
41343,Chenery St&Miguel St W-FS/PS,CHNYMIG0,CHNYMIGL,3972,37.73711,-122.42792,0,MIGUEL ST,CHENERY ST,FS,WE,FL,0,20230512124615,14810280,141,None,POINT (-122.42792 37.73711),59,59,9,5,10
41981,Mission St&26th St SW-FS/BZ,MISS26S0,MISS26ST,5568,37.74857,-122.41818,0,26TH ST,MISSION ST,FS,SW,BZ,0,20230512124615,14812382,141,None,POINT (-122.41818 37.74857),53,53,3,2,20
41608,Lake Merced&Middlefield Dr SE-FS/SB,L M MID0,L M MIDF,4839,37.729441,-122.48629,0,MIDDLEFIELD DR,LAKE MERCED BLVD,FS,SE,None,0,20230512124615,14810779,141,None,POINT (-122.48629 37.729443),43,43,10,8,16
43354,Noriega St&25th Ave NE-NS/BZ,NORI25A0,NORI24AV,5741,37.754042,-122.482773,0,25TH AVE,NORIEGA ST,NS,NE,None,0,20230512124615,14814398,141,None,POINT (-122.48277 37.754044),39,39,10,7,35
41871,Noe St&28th St NW-NS/PS,NOE 28S0,NOE 28ST,5734,37.74519,-122.43134,0,28TH ST,NOE ST,NS,NW,None,0,20230512124615,14812066,141,None,POINT (-122.43134 37.74519),84,84,9,5,22
40704,6th Ave&Balboa St SE-NS/BZ,.6AVBBO1,6AVBBOA,3177,37.777146,-122.463918,0,BALBOA ST,6TH AVE,NS,SE,BZ,1,20230512124615,14808397,141,None,POINT (-122.46392 37.777145),5,5,8,4,11
41753,Judah St&25th Ave NE-NS/SI,JUDA25A0,JUDA25AV,5203,37.761452,-122.4833,0,25TH AVE,JUDAH ST,NS,NE,SI,0,20230512124615,14811054,141,None,POINT (-122.4833 37.76145),39,39,10,7,35
42167,Quintara St&24th Ave NE-NS/SB,QUIN24A0,QUIN24AV,6144,37.74846,-122.48131,0,24TH AVE,QUINTARA ST,NS,NE,FL,0,20230512124615,14813355,141,None,POINT (-122.48131 37.74846),39,39,10,7,35
41755,Judah St&31st Ave SE-FS/SI,JUDA31A1,JUDA31AV,5208,37.761105,-122.4895,0,31ST AVE,JUDAH ST,FS,SE,SI,0,20230512124615,14811072,141,None,POINT (-122.4895 37.761105),39,39,10,7,35
41303,Excelsior Ave&Naples St W-NS/PS,EXCLNAP0,EXCLNAPL,4573,37.72399,-122.42899,0,NAPLES ST,EXCELSIOR AVE,NS,WE,FL,0,20230512124615,14810104,141,None,POINT (-122.42899 37.72399),90,90,9,1,7
43894,Chestnut St&Gough St NE-NS/BZ,CHESGOU2,,7857,37.801914,-122.427955,,GOUGH ST,CHESTNUT ST,,,,,20230512124615,14819875,141,None,POINT (-122.427956 37.801914),17,17,4,6,13
43370,Washington St&Mason St SE-FS/SB,WASHMASE,MASNWASH,5372,37.794504,-122.411059,0,MASON ST,WASHINGTON ST,NS,NW,None,0,20230512124615,14814449,141,None,POINT (-122.41106 37.794502),16,16,6,3,21
43174,Burnett Ave&Crestline Dr W-FS/SB,BRNTCRST,BRNTCRST,3712,37.749121,-122.444938,0,CRESTLINE DR,BURNETT AVE,FS,WE,None,0,20230512124615,14815828,141,None,POINT (-122.44494 37.749123),48,48,7,5,38
41101,30th St&Dolores St SW-NS/PS,30STDLR0,30STDLRS,3538,37.74217,-122.424457,0,DOLORES ST,30TH ST,NS,SW,BZ,0,20230512124615,14809315,141,None,POINT (-122.42445 37.74217),59,59,9,5,10
43729,Presidio Blvd&Letterman Dr S-FS/SB,PRSDLTDS,PRSDLTDR,6104,37.799043,-122.452537,0,LETTERMAN DR,PRESIDIO BLVD,FS,SO,None,0,20230512124615,14819344,141,None,POINT (-122.45254 37.79904),3,3,,6,27
42390,Roosevelt Way&Museum Way E-FS/SB,RSVTMUSM,RSVTMUSM,6240,37.76536,-122.44102,0,MUSEUM WAY,ROOSEVELT WAY,FS,EA,None,0,20230512124615,14818104,141,None,POINT (-122.44102 37.76536),113,113,7,5,5
42866,Mission St&Persia Ave NW-NS/BZ,MISSRUT0,MISSRUTH,5616,37.723263,-122.435971,0,PERSIA AVE,MISSION ST,FS,WE,BZ,0,20230512124615,14813993,141,None,POINT (-122.435974 37.723263),80,80,9,1,28
43770,Folsom St&Ogden Ave SW-FS/PS,FOLSOGD1,FOLSOGDN,4696,37.73579,-122.41364,0,OGDEN ST,FOLSOM ST,FS,SW,None,0,20230512124615,14814865,141,None,POINT (-122.41364 37.73579),83,83,9,2,2
43442,Palou Ave&Rankin St E-NS/SB,PALURAN1,PALURANK,5883,37.73821,-122.39824,0,RANKIN ST,PALOU AVE,NS,EA,None,0,20230512124615,14814512,141,None,POINT (-122.39824 37.73821),87,87,2,9,1
43397,North Point St&Polk St NW-FS/BZ,N.PTPOL0,N.PTPOLK,5468,37.805313,-122.423987,0,POLK ST,NORTH POINT ST,FS,NW,BZ,0,20230512124615,14816006,141,None,POINT (-122.42399 37.805313),98,98,6,6,32
42314,Chinatown - Rose Pak Station,CTWN/RP0,,7876,37.794807,-122.408078,0,WASHINGTON ST,STOCKTON ST,,,,0,20230512124615,14819611,141,None,POINT (-122.40808 37.794807),104,104,6,3,6
40823,46th Ave&Santiago St NW-NS/PS,46AVSNT0,46AVSNTG,3596,37.743737,-122.504834,0,SANTIAGO ST,46TH AVE,NS,NW,None,1,20230512124615,14808806,141,None,POINT (-122.50484 37.743736),39,39,10,7,35
41508,Diamond St&Bosworth St SW-FS/BZ,DIAMBOS0,DIAMBOSW,4387,37.733452,-122.434217,0,BOSWORTH ST,DIAMOND ST,FS,SW,BZ,0,20230512124615,14810362,141,None,POINT (-122.43422 37.73345),96,96,9,5,41
40801,16th St&Bryant St N-MB/BZ,16STBRY1,16STBRYT,3281,37.765658,-122.410294,0,BRYANT ST,16TH ST,NS,NE,BZ,1,20230512124615,14808651,141,None,POINT (-122.41029 37.76566),53,53,3,9,20
41544,Font Blvd&Gonzalez Dr E-NS/SB,FONTGNL1,FONTGNLZ,4707,37.716782,-122.475758,0,GONZALEZ DR,FONT BLVD,NS,EA,None,0,20230512124615,14810902,141,None,POINT (-122.47576 37.71678),42,42,10,8,16
43494,Brazil Ave&Munich St W-NS/PS,BRZLMUN0,BRZLMUNI,3764,37.7209,-122.42699,0,MUNICH ST,BRAZIL AVE,NS,WE,FL,0,20230512124615,14817628,141,None,POINT (-122.42699 37.7209),90,90,9,1,7
41568,Fillmore St&Sacramento St NW-NS/BZ,FILLSAC0,FILLSACO,4637,37.789925,-122.4341,0,SACRAMENTO ST,FILLMORE ST,NS,NW,BZ,1,20230512124615,14810945,141,None,POINT (-122.4341 37.789925),102,102,4,6,30
43244,Randolph St&Bright St NE-NS/PS,RNDOBRG1,RNDOBRGT,6174,37.714348,-122.463392,0,BRIGHT ST,RANDOLPH ST,NS,NE,None,0,20230512124615,14814334,141,None,POINT (-122.463394 37.714348),65,65,10,1,24
43099,Sloat Blvd&41st Ave N-FS/BZ,SLOA41A1,SLOA41AV,6446,37.734567,-122.499294,0,41ST AVE,SLOAT BLVD,FS,NO,BZ,0,20230512124615,14818798,141,None,POINT (-122.49929 37.734566),40,40,10,7,35
41255,California St&Davis St NE-NS,CALIDAV0,CALIDAVS,3855,37.793589,-122.397462,0,DRUMM ST,CALIFORNIA ST,NS,NE,None,0,20230512124615,14809564,141,None,POINT (-122.39746 37.79359),108,108,6,3,8
42943,Evans Ave&Quint St W-NS/SB,EVANQUN0,None,7285,37.744039,-122.390473,0,QUINT ST,EVANS AVE,None,None,None,0,20230512124615,14818613,141,None,POINT (-122.39047 37.744038),86,86,2,9,1
41146,Connecticut St&25TH St SE-NS/BB,CONN25S1,CONN25ST,4128,37.752287,-122.396482,0,25TH ST,CONNECTICUT ST,FS,NE,None,0,20230512124615,14809678,141,None,POINT (-122.396484 37.75229),54,54,2,9,1
42295,Pennsylvania AVE & 23rd ST NS  SE,PENN23S1,None,7527,37.755015,-122.392791,0,23RD ST,PENNSYLVANIA AVE,None,None,None,0,20230512124615,14819544,141,None,POINT (-122.39279 37.755016),54,54,2,9,26
43057,Moscow St&Brazil Ave N-NS,MSCWBRZ0,MSCWBRZL,5698,37.72136,-122.42762,0,BRAZIL AVE,MOSCOW ST,NS,NO,FL,0,20230512124615,14817203,141,None,POINT (-122.42762 37.72136),90,90,9,1,7
43184,Divisadero St&Geary Blvd NE-FS/BZ,DIVIGEA1,DIVIGEAR,4421,37.783375,-122.439412,0,GEARY BLVD,DIVISADERO ST,FS,NE,BZ,1,20230512124615,14817325,141,None,POINT (-122.439415 37.783375),103,103,4,11,15
42807,Powell St&Filbert St NW-NS/PS,POWLFIL0,POWLFILB,6054,37.80131,-122.4111,0,FILBERT ST,POWELL ST,NS,NW,None,0,20230512124615,14816958,141,None,POINT (-122.4111 37.80131),106,106,6,3,23
42989,Frida Kahlo Way&Judson Ave SW-FS/BZ,FRIDJDS0,PHELJDSN,5925,37.727867,-122.452453,0,JUDSON AVE,PHELAN AVE,FS,SW,BZ,0,20230512124615,14817177,141,None,POINT (-122.45245 37.727867),71,71,9,8,41
42369,3rd St&Paul Ave SW-FS/SB,.3STPAUL,None,7171,37.722262,-122.395839,0,GILMAN AVE,03RD ST,None,SW,None,0,20230512124615,14816547,141,None,POINT (-122.395836 37.722263),88,88,2,9,1
41922,Lincoln Blvd&Bowley St SE-NS/SB,LINCBOW0,LINCBOWL,5263,37.788393,-122.482457,0,BOWLEY ST,LINCOLN BLVD,NS,SE,None,0,20230512124615,14812018,141,None,POINT (-122.48246 37.78839),3,3,,6,27
41714,Hayes St&Masonic Ave SE-FS/BZ,HAYSMSI1,HAYSMSIC,5002,37.773926,-122.446003,0,MASONIC AVE,HAYES ST,FS,SE,BZ,1,20230512124615,14811369,141,None,POINT (-122.44601 37.773926),24,24,7,11,18
40886,9th Ave&Kirkham St NW-NS/BZ,.9AVKIR0,9AVKIRK,3216,37.760407,-122.466149,0,KIRKHAM ST,9TH AVE,NS,NW,BZ,1,20230512124615,14808485,141,None,POINT (-122.46615 37.760406),109,109,10,8,14
43209,Persia Ave&Mission St E-NS/BZ,PERSMIS1,PERSMISS,5912,37.723147,-122.435845,0,MISSION ST,PERSIA AVE,NS,EA,BZ,0,20230512124615,14818856,141,None,POINT (-122.435844 37.72315),90,90,9,1,7
41270,Church St&27TH St SE-NS/PS,CHUR27S1,CHUR27ST,3998,37.746781,-122.426893,0,27TH ST,CHURCH ST,NS,SE,None,1,20230512124615,14809611,141,None,POINT (-122.426895 37.74678),84,84,9,5,22
41250,Cole St&Alma St SE-NS/PS,COLEALM1,COLEALMA,4090,37.76313,-122.44938,0,ALMA ST,COLE ST,NS,SE,None,0,20230512124615,14809551,141,None,POINT (-122.44938 37.76313),114,114,7,11,3
41723,1100 Lake Merced Blvd W-MB/SB,L M 1100,L M 1100,4829,37.709312,-122.485294,0,None,LAKE MERCED BLVD,MB,WE,None,0,20230512124615,14811205,141,None,POINT (-122.48529 37.709312),43,43,10,8,16
43711,Market St&7th St S-NS/SI,MRKT 7S1,MRKT 7ST,5650,37.780363,-122.412613,0,7TH ST,MARKET ST,NS,SO,SI,0,20230512124615,14816282,141,None,POINT (-122.41261 37.78036),32,32,5,10,34
40859,19th Ave&Eucalyptus Dr SE-FS/BB,19AVEUC1,19AVEUCA,3355,37.7313,-122.474759,0,EUCALYPTUS DR,19TH AVE,NS,SE,BZ,0,20230512124615,14808703,141,None,POINT (-122.47476 37.7313),62,62,10,8,41
42478,23rd Ave&Lincoln Way SW-FS/SB,23AVLWA0,23AVLWAY,3445,37.765026,-122.481609,0,LINCOLN WY,23RD AVE,FS,SW,None,0,20230512124615,14815113,141,None,POINT (-122.481606 37.765026),39,39,10,7,35
42263,Powell St&Sutter St SW-FS,POWLSUT1,POWLSUTT,6076,37.789061,-122.408642,0,SUTTER ST,POWELL ST,FS,SW,None,0,20230512124615,14816502,141,None,POINT (-122.408646 37.789062),19,19,6,3,21
43236,Sunnydale Ave&Garrison Ave SW-NS,SUNYGAR0,SUNYGARR,6573,37.710981,-122.413024,0,ARGONAUT AVE,GARRISON AVE,NS,SW,None,0,20230512124615,14814317,141,None,POINT (-122.413025 37.71098),75,75,9,9,40
41484,The Embarcadero&Ferry Term E-MB/SI,EMBRFRR1,EMBRFRRY,4513,37.79489,-122.393552,0,None,THE EMBARCADERO,NS,SE,None,0,20230512124615,14810579,141,None,POINT (-122.393555 37.79489),108,108,6,3,8
43014,Visitacion Ave&Cora St W-NS/PS,VISICOR1,VISICORA,6848,37.71168,-122.40898,0,CORA ST,VISITACION AVE,NS,WE,None,0,20230512124615,14814132,141,None,POINT (-122.40898 37.71168),75,75,9,9,40
42863,Jackson St&Van Ness Ave NE-NS/BZ,JACKV.N0,JACKV.N.,5165,37.793999,-122.422867,0,VAN NESS AVE,JACKSON ST,NS,NE,BZ,1,20230512124615,14813983,141,None,POINT (-122.42287 37.794),105,105,4,3,32
42812,Sutter St&Laguna St NW-FS/BZ,SUTTLGN0,SUTTLGNA,6599,37.786724,-122.428706,0,LAGUNA ST,SUTTER ST,FS,NW,BZ,1,20230512124615,14816982,141,None,POINT (-122.4287 37.786724),101,101,4,11,30
43751,Skyview Way&Gladeview Dr NW-NS/SB,SKVWGLDV,SKVWGLVW,6428,37.749942,-122.450335,0,GLADEVIEW WAY,SKYVIEW WAY,NS,NW,None,0,20230512124615,14814803,141,None,POINT (-122.45033 37.749943),48,48,7,8,38
42445,Main St&Folsom St NE-FS/BZ,MAINFOLS,,7992,37.789509,-122.391905,,HOWARD ST,MAIN ST,,,,,20230512124615,14819730,141,None,POINT (-122.39191 37.78951),108,108,1,10,8
42732,San Jose Ave&Lakeview Ave N-NS/PS,S J LKV1,S J LKVW,6265,37.71633,-122.450368,0,LAKEVIEW AVE,SAN JOSE AVE,NS,NO,None,0,20230512124615,14816881,141,None,POINT (-122.45037 37.71633),81,81,10,1,24
42972,Sacramento St&Buchanan St SW-NS/BZ,SACOBUC1,SACOBUCH,6292,37.790194,-122.430855,0,BUCHANAN ST,SACRAMENTO ST,NS,SW,BZ,1,20230512124615,14815608,141,None,POINT (-122.430855 37.790195),102,102,4,6,30
42395,Union St&Buchanan St NE-NS/BZ,UNINBUCH,UNINBUCH,7056,37.797578,-122.432107,0,BUCHANAN ST,UNION ST,NS,NE,BZ,0,20230512124615,14818121,141,None,POINT (-122.432106 37.797577),15,15,4,6,13
43760,Palou Ave&Ingalls St N-MB/SB,PALUING1,PALUINGL,5868,37.72942,-122.38273,0,INGALLS ST,PALOU AVE,MB,NO,None,0,20230512124615,14814847,141,None,POINT (-122.38273 37.72942),78,78,2,9,1
41705,Hyde St&Broadway SE-MI,HYDEBDW0,HYDEBDWY,5062,37.796345,-122.418395,0,BROADWAY,HYDE ST,NS,SE,None,0,20230512124615,14811345,141,None,POINT (-122.418396 37.796345),107,107,6,3,32
43212,Union St&Montgomery St SW-NS/SB,UNINMTG0,UNINMTGY,6776,37.800962,-122.404508,0,MONTGOMERY ST,UNION ST,NS,SW,None,0,20230512124615,14818863,141,None,POINT (-122.40451 37.80096),18,18,6,3,23
42552,Mission St&16th St SW-FS/BB,MISS16S0,MISS16ST,5552,37.764804,-122.419737,0,16TH ST,MISSION ST,FS,SW,BB,1,20230512124615,14818255,141,None,POINT (-122.41974 37.764805),53,53,3,2,20
43846,Taraval St&17th Ave SW-NS/PS,TARA17A1,TARA17AV,6615,37.743069,-122.47366,0,17TH AVE,TARAVAL ST,NS,SW,None,0,20230512124615,14814892,141,None,POINT (-122.47366 37.74307),46,46,10,8,41
43298,Letterman Dr&Tide Bldg N-MB/SB,LTDRTID1,LTDRTIDE,5293,37.799382,-122.451849,0,LINCOLN BLVD,LETTERMAN DR,MB,NO,None,0,20230512124615,14817419,141,None,POINT (-122.45185 37.79938),3,3,,6,27
43666,Van Ness Ave&Bush St NS-S/SI,V N BUS3,,8092,37.788449,-122.421918,,BUSH ST,VAN NESS AVE,,,,,20230512124615,14814689,141,None,POINT (-122.42192 37.78845),50,50,4,6,21
41320,Diamond St&Sussex St NW-NS/PS,DIAMSUS0,DIAMSUSX,4405,37.73731,-122.43475,0,SUSSEX ST,DIAMOND ST,NS,NW,FL,0,20230512124615,14810234,141,None,POINT (-122.43475 37.73731),96,96,9,5,10
43702,Sloat Blvd&Sylvan Dr SW-NS/BZ,SLOASYL1,SLOASYLV,6462,37.734125,-122.485834,0,SYLVAN DR,SLOAT BLVD,NS,SW,BZ,0,20230512124615,14816263,141,None,POINT (-122.48583 37.734123),62,62,10,8,35
42144,3rd St&Oakdale/Palou N-NS SI,3ST OKP1,None,7392,37.73435,-122.390893,0,OAKDALE AVE,03RD ST,None,None,None,0,20230512124615,14813214,141,None,POINT (-122.39089 37.73435),87,87,2,9,1
43881,Font Blvd & Mashouf Wellness Center W/NS-SB,FONTMWC0,,7808,37.722759,-122.483629,0,ARBALLO DR,FONT BLVD,,,,0,20230512124615,14819842,141,None,POINT (-122.48363 37.72276),42,42,10,8,16
43772,Crescent Ave&Ellsworth St SW-NS/PS,CRESEWTH,None,7209,37.734733,-122.415052,0,ELLSWORTH ST,CRESCENT AVE,None,SW,None,,20230512124615,14814867,141,None,POINT (-122.415054 37.734734),83,83,9,2,2
43321,Sunset Blvd&Moraga St SE-NS/SB,SUNSMOR1,SUNSMORA,6538,37.755162,-122.495263,0,MORAGA ST,SUNSET BLVD,NS,SE,None,0,20230512124615,14818960,141,None,POINT (-122.49526 37.75516),39,39,10,7,35
41621,Hayes St&Gough St NW-FS/BZ,HAYSGOU0,HAYSGOUG,4996,37.776893,-122.423326,0,GOUGH ST,HAYES ST,FS,NW,BZ,0,20230512124615,14810802,141,None,POINT (-122.423325 37.776894),22,22,4,11,9
41773,Hoffman Ave&23rd St SE-NS/PS,HOFF23S0,HOFF23ST,5032,37.75241,-122.44074,0,23RD ST,HOFFMAN AVE,NS,SE,None,0,20230512124615,14811545,141,None,POINT (-122.44074 37.75241),51,51,3,5,22
43566,24th St&South Van Ness Ave NE-NS,24STSOV0,24STSOVN,3483,37.752445,-122.416156,0,SOUTH VAN NESS AVE,24TH ST,NS,NE,None,0,20230512124615,14814660,141,None,POINT (-122.41615 37.752445),53,53,3,2,20
43073,Grafton Ave&Capitol Ave NE-NS/PS,GRAFCAP1,None,7194,37.720104,-122.459072,0,CAPITOL AVE,GRAFTON AVE,None,NE,None,0,20230512124615,14817231,141,None,POINT (-122.45907 37.720104),64,64,10,1,24
42814,Kansas St&23rd St IB SE-NS/BZ,KANS23S1,KANS23ST,5227,37.75443,-122.402485,0,23RD ST,KANSAS ST,NS,SE,BZ,1,20230512124615,14816995,141,None,POINT (-122.40249 37.75443),54,54,2,9,26
43313,Masonic Ave&Oak St SE-NS/BZ,MSICOAK1,MSICOAK,5716,37.771963,-122.445625,0,OAK ST,MASONIC AVE,NS,SE,BZ,0,20230512124615,14817460,141,None,POINT (-122.445625 37.77196),25,25,7,11,3
43221,Presidio Ave&Sutter St NE-FS/PS,PRESSUT1,PRESSUTT,6098,37.784535,-122.446197,0,SUTTER ST,PRESIDIO AVE,FS,NE,None,0,20230512124615,14818915,141,None,POINT (-122.4462 37.784534),103,103,8,6,31
43830,Fillmore St&Haight St SW-FS/SB,FILLHAI2,None,7636,37.772069,-122.430473,,LAUSSAT ST,FILLMORE ST,None,None,None,,20230512124615,14819506,141,None,POINT (-122.43047 37.772068),26,26,4,11,9
41381,Columbus Ave&Broadway N-FS/BZ,COLMBDW0,COLMBDWY,4101,37.798123,-122.406897,0,BROADWAY,COLUMBUS AVE,FS,NO,BZ,0,20230512124615,14809934,141,None,POINT (-122.4069 37.798122),106,106,6,3,23
41443,The Embarcadero&Howard St SW-FS/SB,EMBRHWR0,EMBRHWRD,4520,37.792159,-122.391066,0,HOWARD ST,THE EMBARCADERO,FS,SW,None,0,20230512124615,14810601,141,None,POINT (-122.39107 37.79216),108,108,1,10,8
42738,Taraval St&40th Ave SW-NS/SI,TARA40A1,TARA40AV,6633,37.74199,-122.498316,0,40TH AVE,TARAVAL ST,NS,SW,None,0,20230512124615,14818373,141,None,POINT (-122.498314 37.74199),39,39,10,7,35
41749,Judah St&16th Ave N-MI/SI,JUDA16A0,JUDA16AV,5198,37.76194,-122.473632,0,16TH AVE,JUDAH ST,MI,NO,SI,0,20230512124615,14811015,141,None,POINT (-122.47363 37.76194),109,109,10,11,14
43318,Taraval St&46th Ave NE-NS/SI,TARA46A0,TARA46AV,6638,37.741823,-122.50449,0,46TH AVE,TARAVAL ST,NS,NE,None,0,20230512124615,14818948,141,None,POINT (-122.50449 37.74182),39,39,10,7,35
43428,O'Farrell St&Grant Ave S-MB/BB,OFARGRN1,OFARGRNT,5810,37.786642,-122.405629,0,GRANT AVE,OFARRELL ST,MB,SO,BB,0,20230512124615,14819051,141,None,POINT (-122.40563 37.78664),19,19,6,3,8
40755,Baker Beach Parking Lot SW-FS/SB,BOWLGIB0,BOWLGIBS,3023,37.790249,-122.482263,0,GIBSON RD,BOWLEY ST,FS,SW,None,0,20230512124615,14808345,141,None,POINT (-122.48226 37.79025),3,3,,6,27
43280,Monterey Blvd&San Aleso Ave W-NS/SB,MTRYSNA1,MTRYSNAL,5442,37.732283,-122.46455,0,SAN ALESO AVE,MONTEREY BLVD,NS,WE,None,0,20230512124615,14815900,141,None,POINT (-122.46455 37.732285),63,63,10,8,41
43657,Fulton St&18TH Ave,FULT18A3,,7721,37.772834,-122.476524,0,18TH AVE,FULTON ST,,,,0,20230512124615,14819319,141,None,POINT (-122.476524 37.772835),9,9,8,4,12
41242,Geary Blvd&20TH Ave SW-NS/BZ,GEAR20A1,GEAR20AV,4266,37.780221,-122.479484,0,20TH AVE,GEARY BLVD,NS,SW,BZ,1,20230512124615,14809826,141,None,POINT (-122.479485 37.78022),8,8,8,4,29
42949,3rd St&Carroll Ave NE-FS/SI,3ST CAR0,3ST CAR0,7343,37.725491,-122.394222,0,CARROLL AVE,3RD ST,FS,NE,SI,0,20230512124615,14818640,141,None,POINT (-122.39422 37.72549),86,86,2,9,1
41538,Folsom St&Tompkins Ave NW-NS/PS,FOLSTPK1,FOLSTPKN,4701,37.73716,-122.41352,0,TOMPKINS ST,FOLSOM ST,NS,NW,None,0,20230512124615,14810896,141,None,POINT (-122.41352 37.73716),83,83,9,2,2
40969,Ashbury St&Piedmont St SE-NS/PS,ASHBPIE1,ASHBPIED,3664,37.765146,-122.445877,0,PIEDMONT ST,ASHBURY ST,NS,SE,None,0,20230512124615,14809106,141,None,POINT (-122.44588 37.765144),112,112,7,5,3
40889,9th Ave&Lincoln Way SW-FS/BZ,.9AVLWA0,9AVLWAY,3221,37.765689,-122.466517,0,LINCOLN WY,9TH AVE,FS,SW,BZ,1,20230512124615,14808499,141,None,POINT (-122.466515 37.76569),109,109,10,11,14
42290,Persia Ave&Athens St E-NS/PS,PERSATH1,PERSATHN,5907,37.720112,-122.429467,0,ATHENS ST,PERSIA AVE,NS,WE,None,0,20230512124615,14818061,141,None,POINT (-122.42947 37.72011),90,90,9,1,7
42169,Quintara St&26th Ave NE-NS/SB,QUIN26A0,QUIN26AV,6146,37.74838,-122.48345,0,26TH AVE,QUINTARA ST,NS,NE,FL,0,20230512124615,14813361,141,None,POINT (-122.48345 37.74838),39,39,10,7,35
42340,19th Ave&Vicente St SW-FS/BZ,19AVVCT0,19AVVCTE,3399,37.73901,-122.47553,0,VICENTE ST,19TH AVE,FS,SW,BZ,1,20230512124615,14815018,141,None,POINT (-122.47553 37.73901),40,40,10,7,35
41919,Laguna Honda Blvd&Vasquez Ave S-FS,LGHNVSQ0,LGHNVSQZ,5256,37.74602,-122.45816,0,VASQUEZ AVE,LAGUNA HONDA BLVD,FS,SO,None,0,20230512124615,14812015,141,None,POINT (-122.45816 37.74602),49,49,7,8,41
43252,City College Bookstore SE-NS/BZ,FRIDBKS1,PHELBKST,5922,37.7241,-122.45226,0,CLOUD CIR,PHELAN AVE,NS,SE,BZ,1,20230512124615,14814375,141,None,POINT (-122.45226 37.7241),95,95,9,8,41
42285,Wawona St&46th Ave SW-NS/PS,WAWO46A0,WAWO46AV,6932,37.736125,-122.504351,0,46TH AVE,WAWONA ST,NS,SW,None,1,20230512124615,14818007,141,None,POINT (-122.50435 37.736126),40,40,10,7,35
41558,Fillmore St&Hayes St NE-FS/BZ,FILLHAY1,FILLHAYS,4621,37.776106,-122.431197,0,HAYES ST,FILLMORE ST,FS,NE,BZ,1,20230512124615,14810929,141,None,POINT (-122.4312 37.776108),22,22,4,11,9
40930,42nd Ave&Clement St SE-NS/PS,42AVCLM0,42AVCLMT,3566,37.781087,-122.502994,0,CLEMENT ST,42ND AVE,NS,SE,None,0,20230512124615,14809193,141,None,POINT (-122.50299 37.781086),8,8,8,4,29
41825,1650 Geneva Ave N-FS/BZ,GNVA1650,GNVA1650,4795,37.71187,-122.42819,0,None,GENEVA AVE,FS,NO,None,0,20230512124615,14811392,141,None,POINT (-122.42819 37.71187),58,58,9,1,7
41176,Geary Blvd&28TH Ave NE-NS/BZ,GEAR28A0,GEAR28AV,4271,37.780005,-122.487806,0,28TH AVE,GEARY BLVD,NS,NE,BZ,0,20230512124615,14809841,141,None,POINT (-122.48781 37.780006),8,8,8,4,29
41023,Arguello Blvd&Geary Blvd NW-NS/BZ,ARGLGEA0,ARGLGEAR,3649,37.781429,-122.458955,0,GEARY BLVD,ARGUELLO BLVD,NS,NW,BZ,1,20230512124615,14808945,141,None,POINT (-122.458954 37.78143),5,5,8,4,11
41335,Chicago Way&Cordova St N-NS/SB,CHGOCOR1,CHGOCORD,3961,37.708968,-122.434336,0,CORDOVA ST,CHICAGO WAY,NS,NO,None,0,20230512124615,14810269,141,None,POINT (-122.43433 37.70897),58,58,9,1,7
40958,Bryant St&25TH St NW-NS/BZ,BRYT25S0,BRYT25ST,3748,37.7513,-122.40907,0,25TH ST,BRYANT ST,NS,NW,BZ,0,20230512124615,14809069,141,None,POINT (-122.40907 37.7513),53,53,3,2,20
42862,San Jose Ave&Geneva Ave SW-FS/BZ,S J GNV0,S J GNVA,6263,37.720649,-122.446738,0,GENEVA AVE,SAN JOSE AVE,FS,WE,BZ,0,20230512124615,14813968,141,None,POINT (-122.44674 37.72065),80,80,9,1,28
42592,Noriega St&44th Ave NW-FS/BZ,NORI44A0,NORI44AV,5759,37.75316,-122.503088,0,44TH AVE,NORIEGA ST,NS,NE,BZ,0,20230512124615,14815207,141,None,POINT (-122.50309 37.75316),39,39,10,7,35
43355,Mission St&5th St S-NS/BZ,MISS.5S1,MISS.5ST,5535,37.782716,-122.406525,0,05TH ST,MISSION ST,NS,SO,BZ,0,20230512124615,14814400,141,None,POINT (-122.406525 37.782715),32,32,1,10,34
42393,Winston Dr&Lake Merced Blvd NE-NS,WINSL M1,WINSL M,6954,37.727122,-122.483299,0,LAKE MERCED BLVD,WINSTON DR,NS,NE,None,1,20230512124615,14818110,141,None,POINT (-122.4833 37.727123),43,43,10,8,16
42249,Jones St&Post St NW-NS/BZ,JONEPOS0,JONEPOST,5186,37.78781,-122.41344,0,POST ST,JONES ST,NS,NW,BZ,1,20230512124615,14813318,141,None,POINT (-122.41344 37.78781),50,50,6,3,21
41328,California St&Powell St SW-NS,CALIPOW1,CALIPOWL,3891,37.791952,-122.40934,0,POWELL ST,CALIFORNIA ST,NS,SW,None,0,20230512124615,14810248,141,None,POINT (-122.40934 37.79195),16,16,6,3,21
41861,McAllister St&Fillmore St SE-FS/BZ,MCALFIL1,MCALFILL,5392,37.778618,-122.431744,0,FRIENDSHIP CT,MCALLISTER ST,FS,SE,BZ,1,20230512124615,14811916,141,None,POINT (-122.43175 37.778618),97,97,4,11,39
40844,22nd St&Minnesota St NE-NS,22STMIN0,22STMINN,3436,37.75787,-122.39008,0,MINNESOTA ST,22ND ST,NS,NE,None,0,20230512124615,14808670,141,None,POINT (-122.39008 37.75787),55,55,2,9,26
41222,Church St&17TH St **-MI,CHUR17S1,CHUR17ST,3986,37.76281,-122.4285,0,17TH ST,CHURCH ST,MI,None,None,0,20230512124615,14809787,141,None,POINT (-122.4285 37.76281),37,37,3,5,5
41432,Larkin St&O'Farrell St SE-NS/BZ,LARKOFA1,LARKOFAR,4851,37.785084,-122.417792,0,OFARRELL ST,LARKIN ST,NS,SE,BZ,1,20230512124615,14810458,141,None,POINT (-122.41779 37.785084),20,20,5,10,36
40938,18th St&Eureka St NE-NS/BZ,18STERK1,18STERKA,3332,37.760765,-122.438154,0,EUREKA ST,18TH ST,NS,NE,BZ,0,20230512124615,14809203,141,None,POINT (-122.438156 37.760765),115,115,3,5,5
41060,California St&Larkin St NE-NS,CALILAR0,CALILARK,3873,37.790866,-122.41889,0,LARKIN ST,CALIFORNIA ST,NS,NE,None,0,20230512124615,14809520,141,None,POINT (-122.41889 37.790867),16,16,6,3,21
41663,Hudson Ave&Mendell St W-NS,HUDSMENW,HUDSMEND,5049,37.739,-122.38654,0,MENDELL ST,HUDSON AVE,NS,WE,FL,0,20230512124615,14810874,141,None,POINT (-122.38654 37.739),86,86,2,9,1
41455,Eddy St&Gough St SW-NS/BZ,EDDYGOU1,EDDYGOUG,4478,37.7824,-122.424201,0,GOUGH ST,EDDY ST,NS,SW,BZ,1,20230512124615,14810629,141,None,POINT (-122.4242 37.7824),100,100,4,11,39
41285,Garfield St&Victoria St SW-NS/PS,GARFVIC0,GARFVICT,4254,37.719613,-122.465452,0,VICTORIA ST,GARFIELD ST,NS,SW,None,0,20230512124615,14810077,141,None,POINT (-122.465454 37.719612),64,64,10,1,24
41580,Folsom St&1ST St E-FS/BB,FOLS 1S1,FOLS 1ST,4655,37.787316,-122.394326,0,GROTE PL,FOLSOM ST,FS,EA,BZ,0,20230512124615,14810968,141,None,POINT (-122.394325 37.787315),30,30,1,10,8
41729,Ingalls St&Harbor Rd SE-NS/PS,INGLHRB0,INGLHRBR,5108,37.7333,-122.37984,0,HARBOR RD,INGALLS ST,NS,SE,None,0,20230512124615,14811227,141,None,POINT (-122.37984 37.7333),78,78,2,9,1
41738,515 John Muir Dr SW-MB/BZ,J M H511,J M H515,5126,37.71607,-122.49539,0,None,JOHN MUIR DR,MB,SW,None,0,20230512124615,14811258,141,None,POINT (-122.49539 37.71607),43,43,10,8,16
40691,Balboa St&6TH Ave NW-FS/BZ,BBOA 6A0,BBOA 6AV,3034,37.777289,-122.464158,0,6TH AVE,BALBOA ST,FS,NW,BZ,1,20230512124615,14808373,141,None,POINT (-122.46416 37.77729),5,5,8,4,11
43633,Potrero Ave&16th St SW-FS/BZ,POTR16S0,POTR16ST,6027,37.76549,-122.40769,0,16TH ST,POTRERO AVE,FS,SW,BZ,0,20230512124615,14819252,141,None,POINT (-122.40769 37.76549),53,53,3,9,20
41890,METRO TERMINAL-NS/SI,MTROTER0,MTROTERM,5418,37.721809,-122.447425,0,None,I-280 N ON RAMP,NS,,SI,0,20230512124615,14812099,141,None,POINT (-122.447426 37.72181),80,80,9,1,28
42998,3rd St&Evans Ave NE-FS/SI,3ST EVA0,3ST EVA0,7352,37.742726,-122.38792,0,EVANS AVE,3RD ST,FS,NE,SI,0,20230512124615,14818676,141,None,POINT (-122.38792 37.742725),56,56,2,9,1
41634,The Embarcadero&Washington St SW,EMBRWAF0,EMBRWASH,4534,37.796355,-122.395181,0,WASHINGTON ST,THE EMBARCADERO,FS,SW,SI,0,20230512124615,14810826,141,None,POINT (-122.39518 37.796356),108,108,6,3,8
41945,Mission St&2nd St S-NS/BZ,MISS 2S1,MISS 2ST,5530,37.78787,-122.39985,0,02ND ST,MISSION ST,NS,SO,BZ,0,20230512124615,14811800,141,None,POINT (-122.39985 37.78787),32,32,1,10,8
41834,Howth St&Geneva Ave W-FS,HOWTGNV0,HOWTGNVA,5038,37.72193,-122.45028,0,GENEVA AVE,HOWTH ST,FS,WE,FL,0,20230512124615,14811453,141,None,POINT (-122.45028 37.72193),81,81,10,1,24
43872,Townsend St & 5 St S-FS/BZ,TOWN5ST0,None,7957,37.775646,-122.396672,0,05TH ST,TOWNSEND ST,None,None,None,0,20230512124615,14819802,141,None,POINT (-122.396675 37.775646),34,34,1,10,4
42849,Mason St&Broadway NW-NS,MASNBDW1,MASNBDWY,5356,37.797351,-122.412009,0,BROADWAY,MASON ST,NS,NW,None,1,20230512124615,14813932,141,None,POINT (-122.41201 37.79735),107,107,6,3,21
41798,Lombard St&Lyon St NE-NS/BZ,LOMBLYO1,LOMBGATE,5282,37.798543,-122.44716,0,LYON ST,LOMBARD ST,NS,NE,BZ,1,20230512124615,14811747,141,None,POINT (-122.44716 37.798542),14,14,4,6,13
40926,45th Ave&Cabrillo St NW-NS/PS,45AVCBR0,45AVCBRO,3573,37.773538,-122.505831,0,CABRILLO ST,45TH AVE,NS,NW,None,0,20230512124615,14809185,141,None,POINT (-122.50583 37.773537),8,8,8,4,29
40925,45th Ave&Cabrillo St NE-FS/PS,45AVCBR1,45AVCBRO,3572,37.773573,-122.50567,0,CABRILLO ST,45TH AVE,FS,NE,None,0,20230512124615,14809182,141,None,POINT (-122.50567 37.773575),8,8,8,4,29
40685,Beach St&Mason St SW-NS/PS,BECHMAS0,BECHMASN,3092,37.807407,-122.414125,0,MASON ST,BEACH ST,NS,SW,None,1,20230512124615,14808266,141,None,POINT (-122.41412 37.807407),99,99,6,3,23
41739,Mansell St&Brussels St S-NS/PS,MANSBRU0,MANSBRUS,5338,37.720926,-122.403124,0,BRUSSELS ST,MANSELL ST,NS,SO,None,0,20230512124615,14811263,141,None,POINT (-122.40312 37.720924),91,91,9,2,25
42432,Cesar Chavez St&Harrison St NE-NS/BZ,CHAVHARR,,7751,37.748339,-122.41138,0,HARRISON ST,ARMY ST,,,,,20230512124615,14819699,141,None,POINT (-122.41138 37.74834),53,53,3,2,20
42241,3rd St&Revere/Shafter S-NS/SI,3ST RVS0,None,7401,37.732262,-122.391502,0,REVERE AVE,3RD ST,None,None,None,0,20230512124615,14813277,141,None,POINT (-122.3915 37.73226),86,86,2,9,1
43450,Fillmore St&Geary Blvd SW-FS/BZ,FILLGEA0,FILLGEAR,4615,37.783984,-122.43291,0,GEARY BLVD,FILLMORE ST,FS,SW,BZ,1,20230512124615,14814537,141,None,POINT (-122.43291 37.783985),97,97,4,11,39
42736,Sunset Blvd&Ulloa St SE-NS/SB,SUNSULO1,SUNSULOA,6557,37.740243,-122.494211,0,ULLOA ST,SUNSET BLVD,NS,SE,None,0,20230512124615,14818369,141,None,POINT (-122.49421 37.740242),40,40,10,7,35
43383,Telegraph Hill Bl.&Filbert St NE-FS,TELEFIL1,TELEFILB,6654,37.801846,-122.405735,0,FILBERT ST,TELEGRAPH HILL BLVD,FS,NE,None,0,20230512124615,14814477,141,None,POINT (-122.40573 37.801846),18,18,6,3,23
42071,Naples St&Brunswick St NW-NS/SB,NAPLBRU0,NAPLBRUN,5475,37.711797,-122.437989,0,BRUNSWICK ST,NAPLES ST,NS,NW,None,0,20230512124615,14812675,141,None,POINT (-122.43799 37.711796),58,58,9,1,7
41436,Lawton St&11th Ave NE-NS/SB,LAWT11A0,LAWT11AV,4856,37.7584,-122.46793,0,11TH AVE,LAWTON ST,NS,NE,FL,0,20230512124615,14810466,141,None,POINT (-122.46793 37.7584),109,109,10,8,14
41214,Bayshore Blvd&Cortland Ave NW-NS/BZ,BSHRCOR0,BSHRCORT,3779,37.73946,-122.407122,0,None,BAY SHORE BLVD,NS,NW,BZ,1,20230512124615,14809741,141,None,POINT (-122.40712 37.73946),82,82,2,2,2
42912,Leland Ave&Bayshore Blvd SW-NS/BZ,LELDBSH0,None,7329,37.711138,-122.403794,0,BAYSHORE BLVD,LELAND AVE,None,None,None,0,20230512124615,14817051,141,None,POINT (-122.40379 37.71114),75,75,9,9,40
42608,Otis St&12th St W-FS/BZ,OTIS12S0,OTIS12ST,5836,37.77281,-122.41917,0,12TH ST,OTIS ST,FS,WE,BZ,0,20230512124615,14816736,141,None,POINT (-122.41917 37.77281),32,32,1,10,20
43884,New Hall & Hudson St,NHL.HUDS,None,7772,37.73997,-122.388403,,None,None,None,None,BZ,,20230512124615,14819846,141,None,POINT (-122.388405 37.73997),86,86,2,9,1
43261,Buena Vista Ave East&SJ H NW-MB/SB,BV ESJ H,BV ESJ H,3818,37.76773,-122.44021,0,None,BUENA VISTA EAST AVE,MB,NW,None,0,20230512124615,14815840,141,None,POINT (-122.44021 37.76773),112,112,7,5,3
40793,14th Ave&Taraval St NW-NS,14AVTAR1,14AVTARA,3249,37.7434,-122.4703,0,TARAVAL ST,14TH AVE,NS,NW,None,0,20230512124615,14808639,141,None,POINT (-122.4703 37.7434),44,44,10,8,41
43609,Turk St&Mason St NW-FS/BZ,TURKMASN,TURKTAYL,6733,37.783476,-122.409379,0,KITTREDGE TER,TURK ST,MB,NO,BZ,0,20230512124615,14817708,141,None,POINT (-122.40938 37.783478),20,20,5,10,36
42496,Juan Bautista Cir & Font Blvd S-NS/SB,JBAUFONT,JBAUFONT,7078,37.71749,-122.47744,0,FONT BLVD,JUAN BAUTISTA CIR,NS,SO,None,0,20230512124615,14816619,141,None,POINT (-122.47744 37.71749),42,42,10,8,16
42236,Bayshore Blvd&Sunnydale Ave N-NS,BSHRSND1,None,7396,37.70897,-122.405113,0,SUNNYDALE AVE,BAYSHORE BLVD,None,None,None,0,20230512124615,14813241,141,None,POINT (-122.40511 37.70897),89,89,9,9,1
43366,555 Myra Way SW-FS/SB,MYRAH551,MYRAH555,5451,37.7382,-122.450884,0,None,MYRA WAY,FS,SW,None,0,20230512124615,14814436,141,None,POINT (-122.45088 37.7382),72,72,9,8,41
43277,Munich St&Naples St NE-NS/PS,MNCHNAP1,MNCHNAPL,5632,37.711155,-122.438241,0,NAPLES ST,MUNICH ST,NS,NE,None,0,20230512124615,14815895,141,None,POINT (-122.43824 37.711155),58,58,9,1,7
42349,Bryant St&19TH St SE-NS/BZ,BRYT19S1,BRYT19ST,3737,37.76038,-122.40991,0,19TH ST,BRYANT ST,NS,SE,BZ,0,20230512124615,14815051,141,None,POINT (-122.40991 37.76038),53,53,3,9,20
43531,Portola Dr&Glenview Dr NW-FS/SB,PORTGLV0,PORTGLVW,6015,37.746462,-122.447917,0,GLENVIEW DR,PORTOLA DR,FS,NW,FL,0,20230512124615,14819199,141,None,POINT (-122.447914 37.746464),48,48,9,5,10
42439,Broadway&Sansome St SW-NS/BB,BDWYSAN0,,7862,37.798392,-122.402343,,None,None,,,,,20230512124615,14819718,141,None,POINT (-122.40234 37.798393),106,106,6,3,23
41574,Fitzgerald Ave&Hawes St W-NS/PS,FITZHAW1,FITZHAWS,4645,37.719921,-122.389587,0,HAWES ST,FITZGERALD AVE,NS,WE,None,0,20230512124615,14810957,141,None,POINT (-122.38959 37.71992),88,88,2,9,1
43282,Ocean Ave & Junipero Serra Blvd SE,OCENJ S1,OCENJ S,5792,37.730952,-122.471686,0,EUCALYPTUS DR,JUNIPERO SERRA BLVD,FS,SE,None,0,20230512124615,14815903,141,None,POINT (-122.47169 37.730953),67,67,10,8,41
42523,956 Corbett Ave W-MB/SB,CRBTH956,CRBTH956,4170,37.751682,-122.443712,0,None,CORBETT AVE,MB,WE,None,0,20230512124615,14816696,141,None,POINT (-122.44371 37.751682),51,51,7,5,38
43465,1076 Rhode Island St W-MB/AB,R IS1070,R IS1076,6186,37.75617,-122.401842,0,None,RHODE ISLAND ST,MB,WE,AB,0,20230512124615,14816059,141,None,POINT (-122.40184 37.75617),54,54,2,9,26
41067,Clipper St&Diamond Heights Blvd-NS,CLPRDHT0,CLPRDHTS,4071,37.74689,-122.44396,0,DIAMOND HEIGHTS BLVD,CLIPPER ST,NS,NO,None,1,20230512124615,14809534,141,None,POINT (-122.44396 37.74689),51,51,3,5,22
42782,San Bruno Ave&Thornton Ave E-NS/BZ,SBROTHR1,SBROTHRN,6367,37.73026,-122.40462,0,THORNTON AVE,SAN BRUNO AVE,NS,EA,BZ,0,20230512124615,14815396,141,None,POINT (-122.40462 37.73026),91,91,2,2,25
42400,The Embarcadero&Brannan St S-NS/SI,EMBRBRAN,None,7145,37.784627,-122.387977,0,BRANNAN ST,THE EMBARCADERO,None,SO,None,0,20230512124615,14818133,141,None,POINT (-122.38798 37.784626),31,31,1,10,8
41478,Geneva Ave&Castillo St E-NS/PS,GNVACAS0,GNVACAST,4808,37.7079,-122.41823,0,CASTELO ST,GENEVA AVE,NS,EA,None,0,20230512124615,14810695,141,None,POINT (-122.41823 37.7079),,,,,
42969,Plymouth Ave&Lakeview Ave SE-NS,PLYMLKV1,PLYMLKVW,5963,37.71817,-122.45606,0,LAKEVIEW AVE,PLYMOUTH AVE,NS,SE,FL,0,20230512124615,14815604,141,None,POINT (-122.45606 37.71817),81,81,10,1,24
42747,San Jose Ave&Geneva Ave-FS/SI,S.J.GNV1,S.J.GNVA,6347,37.720524,-122.446657,0,GENEVA AVE,SAN JOSE AVE,FS,,SI,0,20230512124615,14818411,141,None,POINT (-122.446655 37.720524),80,80,9,1,28
42126,Market St&3rd St S-NS/SI,MRKT.3S0,MRKT.3ST,5640,37.787525,-122.403519,0,3RD ST,MARKET ST,NS,SO,SI,1,20230512124615,14813128,141,None,POINT (-122.40352 37.787525),32,32,6,10,8
43789,Townsend St&4th St SW-NS/BB,TOWN 4S1,TOWN 4ST,6695,37.776582,-122.395491,0,04TH ST,TOWNSEND ST,NS,SO,BZ,0,20230512124615,14817904,141,None,POINT (-122.39549 37.77658),34,34,1,10,4
40982,Bosworth St&Milton St NE-NS/PS,BOSWMIL0,BOSWMILT,3701,37.733487,-122.429326,0,MILTON ST,BOSWORTH ST,NS,NE,None,0,20230512124615,14809126,141,None,POINT (-122.42933 37.733486),93,93,9,5,28
43007,Fulton St&10TH Ave SE-FS/BZ,FULT10A1,FULT10AV,4737,37.77325,-122.46761,0,10TH AVE,FULTON ST,FS,SE,BZ,1,20230512124615,14814116,141,None,POINT (-122.46761 37.77325),9,9,8,4,12
41295,Corbett Ave&Romain St S-FS/SB,CRBTROM0,CRBTROMN,4187,37.755349,-122.44283,0,ROMAIN ST,CORBETT AVE,FS,SO,None,0,20230512124615,14810095,141,None,POINT (-122.44283 37.75535),51,51,7,5,38
41785,Legion of Honor SW-FS/SB,LHONWES0,LHONWEST,4874,37.78498,-122.49969,0,EL CAMINO DEL MAR,LEGION OF HONOR DR,FS,SW,None,0,20230512124615,14811672,141,None,POINT (-122.49969 37.78498),7,7,8,4,17
43024,Silver Ave&Gambier St SW-NS/PS,SILVGAM0,SILVGAMB,6407,37.728748,-122.422786,0,GAMBIER ST,SILVER AVE,NS,SW,None,0,20230512124615,14814183,141,None,POINT (-122.42278 37.72875),92,92,9,2,7
43029,Sunnydale Ave&Schwerin St SW-NS,SUNYSHW0,SUNYSHWN,6582,37.71059,-122.4115,0,SCHWERIN ST,SUNNYDALE AVE,NS,SW,None,0,20230512124615,14815645,141,None,POINT (-122.4115 37.71059),75,75,9,9,40
42623,Polk St&Pine St SW-FS/BB,POLKPIN0,POLKPINE,5996,37.789359,-122.42053,0,PINE ST,POLK ST,FS,SW,BB,1,20230512124615,14816785,141,None,POINT (-122.42053 37.78936),50,50,4,3,21
42860,Great Hwy&Ocean Beach W-MB/SB,GHWYOBC0,GHWYOBCH,4780,37.76737,-122.510456,0,None,GREAT HWY,MB,WE,None,0,20230512124615,14813965,141,None,POINT (-122.51045 37.76737),9,9,8,4,12
42408,Clay St&Kearny St SE-FS/BZ,CLAYKRN1,CLAYKRNY,4021,37.794477,-122.404411,0,KEARNY ST,CLAY ST,FS,SE,BZ,0,20230512124615,14818170,141,None,POINT (-122.40441 37.794476),104,104,6,3,6
42256,Market St&Steuart St S-NS/SB,MRKTSTE1,MRKTSTEU,5693,37.79426,-122.39491,0,STEUART ST,MARKET ST,NS,SO,None,1,20230512124615,14816460,141,None,POINT (-122.39491 37.79426),108,108,6,10,8
42441,Sports Basement Parking Lot FS SW/BB,SPRTBSM0,None,8033,37.803102,-122.458763,,MASON ST,OLD MASON ST,None,None,None,,20230512124615,14819726,141,None,POINT (-122.45876 37.8031),3,3,,6,27
42066,Ocean Ave&Aptos Ave W-NS/SI,OCENAPT0,OCENAPTO,5780,37.728383,-122.467871,0,APTOS AVE,OCEAN AVE,NS,WE,SI,0,20230512124615,14812643,141,None,POINT (-122.46787 37.728382),67,67,10,8,41
43027,Schwerin St&Sunnydale Ave S-NS/PS,SHWNSUN1,SHWNSUNY,6386,37.71049,-122.41136,0,SUNNYDALE AVE,SCHWERIN ST,NS,SO,None,0,20230512124615,14814189,141,None,POINT (-122.41136 37.71049),75,75,9,9,40
42076,Naples St&Rolph St W-FS/SB,NAPLRLP0,NAPLRLPH,5483,37.713484,-122.436786,0,ROLPH ST,NAPLES ST,FS,WE,None,0,20230512124615,14812680,141,None,POINT (-122.43678 37.713486),58,58,9,1,7
41413,Geneva Ave&Santos St E-NS/PS,GNVASANE,GNVASANT,4899,37.708368,-122.419954,0,SANTOS ST,GENEVA ST,NS,EA,None,0,20230512124615,14810427,141,None,POINT (-122.41995 37.708366),74,74,9,9,40
43890,Palou Ave&Newhall St NW-FS/SB,PLAUNEWH,,7756,37.735162,-122.392886,,NEWHALL ST,PALOU AVE,,,,,20230512124615,14819863,141,None,POINT (-122.39288 37.73516),87,87,2,9,1
41115,Columbus Ave&Green St E-NS/BZ,COLMGRE1,COLMGREN,4108,37.799386,-122.408723,0,GREEN ST,COLUMBUS AVE,NS,EA,BZ,0,20230512124615,14809354,141,None,POINT (-122.40872 37.799385),106,106,6,3,23
41234,Castro St&16TH St NW-NS/SB,CTRO16S0,CTRO16ST,4312,37.76427,-122.43544,0,16TH ST,CASTRO ST,NS,NW,None,0,20230512124615,14809813,141,None,POINT (-122.43544 37.76427),113,113,7,5,5
42953,Lincoln Way&31st Ave NW-FS/BZ,LWAY31A0,LWAY31AV,5320,37.764943,-122.490422,0,31ST AVE,LINCOLN WY,FS,NW,BZ,0,20230512124615,14814028,141,None,POINT (-122.490425 37.764942),9,9,10,4,12
42735,Sunset Blvd&Irving St SW-FS/SB,SUNSIRV0,SUNSIRVG,6528,37.762496,-122.495955,0,IRVING ST,SUNSET BLVD,FS,SW,None,0,20230512124615,14818367,141,None,POINT (-122.49596 37.762497),39,39,10,7,35
42511,Oakdale Ave&Loomis St NE-NS/BZ,OAKDLOOM,OAKDLOOM,7032,37.742528,-122.404165,0,LOOMIS ST,OAKDALE AVE,FS,NW,None,0,20230512124615,14816664,141,None,POINT (-122.40417 37.742527),85,85,2,9,1
42531,De Haro St&19TH St SE-NS/PS,DHRO19S1,DHRO19ST,4353,37.760934,-122.401117,0,19TH ST,DE HARO ST,NS,SE,None,0,20230512124615,14818180,141,None,POINT (-122.401115 37.760933),54,54,2,9,26
42568,The Embarcadero&Brannan St S-FS/SI,EMBRBRA1,EMBRBRAN,4506,37.784359,-122.388138,0,BRANNAN ST,THE EMBARCADERO,NS,SO,SI,0,20230512124615,14813668,141,None,POINT (-122.38814 37.78436),31,31,1,10,8
41874,Noe St&30th St NW-NS/PS,NOE 30S0,NOE 30ST,5738,37.74201,-122.43101,0,30TH ST,NOE ST,NS,NW,None,1,20230512124615,14812069,141,None,POINT (-122.43101 37.74201),84,84,9,5,22
43589,Woodside Ave&Ulloa St SW-NS/SB,WDSDULO0,WDSDULOA,6940,37.745695,-122.454058,0,ULLOA ST,WOODSIDE AVE,NS,SW,FL,0,20230512124615,14816187,141,None,POINT (-122.454056 37.745693),49,49,7,8,41
41090,30th Ave&Quintara St SE-NS/PS,30AVQUI1,30AVQUIN,3526,37.74799,-122.4878,0,QUINTARA ST,30TH AVE,NS,SE,FL,0,20230512124615,14809293,141,None,POINT (-122.4878 37.74799),40,40,10,7,35
42038,Pacific Ave&Larkin St NE-NS/PS,PACFLAR1,PACFLARK,5843,37.795328,-122.419863,0,LARKIN ST,PACIFIC AVE,NS,NE,None,0,20230512124615,14812539,141,None,POINT (-122.41986 37.795326),16,16,6,3,32
42343,Bayshore Blvd&Tunnel Ave W-FS/BZ,BSHRTUN0,BSHRTUNL,3792,37.7129,-122.40102,0,TUNNEL AVE,BAY SHORE BLVD,FS,WE,BZ,0,20230512124615,14815029,141,None,POINT (-122.40102 37.7129),75,75,9,9,40
41808,Grove St&Van Ness Ave SE-FS/BZ,GROVV.N1,GROVV.N.,4923,37.778188,-122.419743,0,GROVE ST,GROVE ST,FS,SE,BZ,0,20230512124615,14811592,141,None,POINT (-122.41975 37.778187),21,21,4,10,36
40966,14th St&Sanchez St NE-NS/PS,14STSNC1,None,3260,37.76767,-122.431105,0,SANCHEZ ST,14TH ST,NS,NE,FL,0,20230512124615,14809103,141,None,POINT (-122.43111 37.76767),28,28,7,5,5
43756,Plymouth Ave&Mangels Ave SW-NS/SB,PLYMMAN0,PLYMMANG,5968,37.732239,-122.457768,0,MANGELS AVE,PLYMOUTH AVE,NS,SW,None,0,20230512124615,14814840,141,None,POINT (-122.45777 37.73224),70,70,9,8,41
41806,Junipero Serra Blvd&Palmetto Av FS,J S PAL2,J S PALM,5140,37.71091,-122.47099,0,PALMETTO AVE,JUNIPERO SERRA BLVD,FS,NE,FL,0,20230512124615,14811575,141,None,POINT (-122.47099 37.71091),65,65,10,8,24
42846,Fremont St&Market St E-NS/SI,FRMTMRK0,FRMTMRKT,4725,37.791645,-122.398151,0,FRONT ST,FREMONT ST,NS,EA,SI,0,20230512124615,14813925,141,None,POINT (-122.39815 37.791645),108,108,6,10,8
41459,Castro St&25TH St SE-NS/BZ,CTRO25S1,CTRO25ST,4329,37.7496,-122.43383,0,25TH ST,CASTRO ST,NS,SE,BZ,0,20230512124615,14810637,141,None,POINT (-122.43383 37.7496),84,84,3,5,22
42879,Roosevelt Way&Clifford Ter NW-MI/PS,RSVTCLI1,RSVTCLIF,6237,37.76373,-122.44301,0,CLIFFORD TER,ROOSEVELT WAY,MI,NW,None,0,20230512124615,14815465,141,None,POINT (-122.44301 37.76373),112,112,7,5,5
43610,Hyde St&Lombard St SE-NS,HYDELOM0,HYDELOMB,5077,37.801912,-122.419562,0,LOMBARD ST,HYDE ST,MI,EA,None,0,20230512124615,14817711,141,None,POINT (-122.41956 37.80191),107,107,6,6,32
41161,Chenery St&Roanoke St N-NS/SB,CHNYROA0,CHNYROAN,3976,37.73563,-122.4302,0,ROANOKE ST,CHENERY ST,NS,NO,FL,0,20230512124615,14809696,141,None,POINT (-122.4302 37.73563),59,59,9,5,10
42318,Ingalls St & Palou Ave NW-NS/PS,INGLPALU,,8066,37.729884,-122.383451,,PALOU AVE,INGALLS ST,NS,NW,,,20230512124615,14819627,141,None,POINT (-122.38345 37.729885),86,86,2,9,1
43484,Stockton St&Sutter St NE-FS/BB,STOKSUT0,STOKSUTT,6523,37.79013,-122.40705,0,STOCKTON ST,SUTTER ST,FS,NE,BB,0,20230512124615,14816123,141,None,POINT (-122.40705 37.79013),19,19,6,3,8
42140,Carmel St&Belvedere St SW-MI/SB,CRMLBVDR,CRMLBVDR,4204,37.76092,-122.447631,0,BELVEDERE ST,CARMEL ST,MI,SW,None,0,20230512124615,14813182,141,None,POINT (-122.44763 37.76092),114,114,7,11,14
40710,16th St&Dolores St SW-NS/BZ,16STDLR0,16STDLRS,3285,37.764567,-122.426683,0,DOLORES ST,16TH ST,NS,SW,None,1,20230512124615,14808412,141,None,POINT (-122.42668 37.76457),37,37,3,5,5
41467,Evans Ave&Mendell St S-FS/BZ,EVANMEN0,EVANMEND,4553,37.740699,-122.384507,0,MENDELL ST,EVANS AVE,FS,SO,None,0,20230512124615,14810667,141,None,POINT (-122.38451 37.7407),86,86,2,9,1
40908,46th Ave&Quintara St NW-NS/PS,46AVQUI0,46AVQUIN,3592,37.747457,-122.5051,0,QUINTARA ST,46TH AVE,NS,NW,None,0,20230512124615,14809006,141,None,POINT (-122.5051 37.747456),39,39,10,7,35
41424,Folsom St&Cortland Ave SW-FS/PS,FOLSCOR1,FOLSCORT,4688,37.7388,-122.41337,0,CORTLAND AVE,FOLSOM ST,FS,SW,None,0,20230512124615,14810447,141,None,POINT (-122.41337 37.7388),83,83,9,2,2
43394,North Point St&Larkin St NE-NS/BZ,N.PTLAR0,N.PTLARK,5464,37.80559,-122.42189,0,LARKIN ST,NORTH POINT ST,NS,NE,BZ,0,20230512124615,14815986,141,None,POINT (-122.42189 37.80559),98,98,6,6,32
43740,Parnassus Ave&4th Ave SW-NS/BZ,PARN 4TH,,7687,37.762522,-122.460947,,4TH AVE,PARNASSUS AVE,,,,,20230512124615,14819392,141,None,POINT (-122.460945 37.762524),109,109,7,11,14
41326,Geary Blvd&Divisadero St NE-NS/BB,GEARDIV0,GEARDIVI,4293,37.783428,-122.439366,0,DIVISADERO ST,GEARY BLVD,NS,NE,BB,1,20230512124615,14810244,141,None,POINT (-122.43937 37.78343),103,103,4,11,15
40720,17th Ave&Santiago St NW-NS,17AVSNT1,17AVSNTG,3306,37.74511,-122.47374,0,SANTIAGO ST,17TH AVE,NS,NW,None,0,20230512124615,14808439,141,None,POINT (-122.47374 37.74511),44,44,10,8,41
43188,Mission St&Geneva Ave W-FS/BB,MISSGNV0,MISSGNVA,5592,37.716455,-122.441149,0,GENEVA AVE,MISSION ST,FS,EA,BZ,1,20230512124615,14817343,141,None,POINT (-122.44115 37.716454),80,80,9,1,28
42381,Powell St&Lombard St SE-NS/PS,POWLLOM1,POWLLOMB,6060,37.802945,-122.411272,0,LOMBARD ST,POWELL ST,NS,SE,None,0,20230512124615,14816588,141,None,POINT (-122.41127 37.802944),106,106,6,3,23
42458,Clipper Cove Way&Treasure Island Rd SE-FS/BZ,CLCVTIR0,,8000,37.81606,-122.370979,,AVENUE OF PALMS,CLIPPER COVE WAY,,,,,20230512124615,14819750,141,None,POINT (-122.37098 37.81606),36,36,1,,37
42190,Right Of Way&Liberty St SE-NS/SB,ROW LBR1,ROW LBRT,6222,37.757239,-122.426867,0,LIBERTY ST,MUNI RAIL - J RROW,NS,SE,None,0,20230512124615,14813527,141,None,POINT (-122.426865 37.75724),52,52,3,5,5
41313,Divisadero St&Clay St NW-NS/BZ,DIVICLA0,DIVICLAY,4413,37.78997,-122.44089,0,CLAY ST,DIVISADERO ST,NS,NW,BZ,0,20230512124615,14810118,141,None,POINT (-122.44089 37.78997),102,102,4,6,30
43524,Turk St&Chabot Ter SE-FS/BZ,TURKCBO1,TURKCBOT,6715,37.778012,-122.451367,0,CHABOT TER,TURK BLVD,FS,SE,BZ,1,20230512124615,14819185,141,None,POINT (-122.45137 37.77801),12,12,7,4,18
42540,Market St&1st St S-NS/SI,MRKT 1ST,MRKT 1ST,7264,37.79094,-122.399195,0,1ST ST,MARKET ST,NS,SO,SI,0,20230512124615,14818203,141,None,POINT (-122.39919 37.79094),108,108,6,10,8
42042,Pacific Ave&Mason St NE-NS/SB,PACFMAS1,PACFMASN,5847,37.796378,-122.411619,0,MASON ST,PACIFIC AVE,NS,NE,None,0,20230512124615,14812543,141,None,POINT (-122.41162 37.79638),107,107,6,3,6
42587,Santos St&Velasco Ave S-NS/PS,SANTVEL1,SANTVELA,6345,37.70982,-122.41935,0,VELASCO AVE,SANTOS ST,NS,NO,None,0,20230512124615,14815189,141,None,POINT (-122.41935 37.70982),74,74,9,9,40
43683,Market St&Powell St N-NS/BZ,MRKTPOW0,MRKTPOWL,5688,37.784474,-122.407544,0,ELLIS ST,MARKET ST,NS,NO,BZ,1,20230512124615,14814764,141,None,POINT (-122.40755 37.784473),19,19,5,3,36
42926,Silver Ave&Topeka Ave W-FS/SB,SILVTPK1,SILVTPKA,6424,37.735273,-122.401065,0,TOPEKA AVE,SILVER AVE,FS,WE,None,0,20230512124615,14818560,141,None,POINT (-122.40106 37.73527),87,87,2,9,1
42659,Geary St&Powell St NW-FS/BZ,GEARPOW0,GEARPOWL,4757,37.787401,-122.408391,0,POWELL ST,GEARY ST,FS,NW,BZ,1,20230512124615,14813783,141,None,POINT (-122.408394 37.7874),19,19,6,3,36
42474,Fillmore St&Broadway SW-FS/BZ,FILLBDW0,FILLBDWY,4605,37.793805,-122.434878,0,BROADWAY,FILLMORE ST,FS,SW,BZ,0,20230512124615,14815108,141,None,POINT (-122.434875 37.793804),102,102,4,6,30
42740,Union St&Jones St NE-NS/BZ,UNINJON0,UNINJONE,6762,37.79969,-122.415665,0,JONES ST,UNION ST,NS,NE,BZ,0,20230512124615,14818386,141,None,POINT (-122.415665 37.79969),107,107,6,3,32
42612,Steiner St&Green St W-MI/PS,STEIGRE0,STEIGREN,6488,37.79606,-122.43707,0,GREEN ST,STEINER ST,MI,WE,None,0,20230512124615,14816763,141,None,POINT (-122.43707 37.79606),14,14,4,6,13
42077,Miraloma Dr&Juanita Way S-NS/SB,MIRAJUA1,MIRAJUAN,5516,37.739199,-122.460026,0,JUANITA WAY,MIRALOMA DR,NS,SO,None,0,20230512124615,14812681,141,None,POINT (-122.46003 37.7392),117,117,9,8,41
40750,Balboa St&Arguello Blvd NW-FS/BZ,BBOAARG0,BBOAARGL,3067,37.77747,-122.45886,0,ARGUELLO BLVD,BALBOA ST,FS,NW,BZ,1,20230512124615,14808326,141,None,POINT (-122.45886 37.77747),5,5,8,4,11
42908,Potrero Ave&15th St NE-FS/BZ,POTR15S1,None,7298,37.767334,-122.407623,,15TH ST,POTRERO AVE,None,None,None,,20230512124615,14817034,141,None,POINT (-122.40762 37.767334),33,33,3,9,20
43457,Powell St&Post St SE-NS/SI,POWLPOS0,POWLPOST,6072,37.788195,-122.408299,0,POST ST,POWELL ST,NS,SE,IS,0,20230512124615,14814560,141,None,POINT (-122.4083 37.788197),19,19,6,3,8
41615,Hayes St&Buchanan St NW-FS/BZ,HAYSBUC0,HAYSBUCH,4983,37.776261,-122.428274,0,BUCHANAN ST,HAYES ST,FS,NW,BZ,1,20230512124615,14810796,141,None,POINT (-122.428276 37.77626),22,22,4,11,9
43367,King St&2nd St W-FS/SB,KING.2S2,KING.2ST,5236,37.7798,-122.38994,0,02ND ST,KING ST,FS,WE,None,0,20230512124615,14814438,141,None,POINT (-122.38994 37.7798),31,31,1,10,4
43910,Mason St&Halleck St NS SW/PS,MASNHLC1,,8027,37.804146,-122.454418,,OLD MASON ST,MASON ST,,,,,20230512124615,14819925,141,None,POINT (-122.454414 37.804146),3,3,,6,27
43198,Cortland Ave&Hilton St NW-FS/BZ,CORTHIL1,CORTHILT,4155,37.739692,-122.40781,0,HILTON ST,CORTLAND AVE,FS,NW,BZ,0,20230512124615,14817367,141,None,POINT (-122.40781 37.739693),82,82,2,2,2
41533,Hyde St&Bay St W-MI,HYDEBAY1,HYDEBAY,5060,37.804777,-122.420261,0,BAY ST,HYDE ST,MI,WE,None,0,20230512124615,14810890,141,None,POINT (-122.42026 37.804775),107,107,6,6,32
41205,Clarendon Ave&Clarendon Woods SE-FS,CLDNCWD1,CLDNCWDS,4032,37.75171,-122.45839,0,CLARENDON WOODS ST,CLARENDON AVE,FS,SE,None,0,20230512124615,14809904,141,None,POINT (-122.45839 37.75171),49,49,7,8,38
42559,Olympia Way&Clarendon Ave NE-NS/SB,OLYMCLD1,OLYMCLDN,5821,37.751494,-122.456224,0,CLARENDON AVE,OLYMPIA WAY,NS,NE,None,0,20230512124615,14813627,141,None,POINT (-122.45622 37.751495),48,48,7,8,38
41366,Fulton St&Arguello Blvd NW-FS/BZ,FULTARG0,FULTARGL,4223,37.774354,-122.458416,0,MCALLISTER ST,ARGUELLO BLVD,FS,NW,BZ,1,20230512124615,14810186,141,None,POINT (-122.45842 37.774353),5,5,8,4,11
40927,47th Ave&Noriega St SE-NS/PS,47AVNOR1,47AVNORI,3605,37.752783,-122.506364,0,NORIEGA ST,47TH AVE,NS,SE,None,0,20230512124615,14809188,141,None,POINT (-122.50636 37.752785),39,39,10,7,35
40760,Balboa St&23RD Ave NE-NS/PS,BBOA23A0,BBOA23AV,3049,37.77647,-122.48219,0,23RD AVE,BALBOA ST,NS,NE,None,0,20230512124615,14807975,141,None,POINT (-122.48219 37.77647),8,8,8,4,29
41292,Diamond St&Arbor St W-MI/PS,DIAMARB0,DIAMARBR,4383,37.738262,-122.434674,0,ARBOR ST,DIAMOND ST,MI,WE,FL,0,20230512124615,14810092,141,None,POINT (-122.43468 37.738262),96,96,9,5,10
42407,Geary Blvd&33RD Ave SW-NS/BZ,GEAR33A1,GEAR33AV,4279,37.779574,-122.493399,0,33RD AVE,GEARY BLVD,NS,SW,BZ,1,20230512124615,14818167,141,None,POINT (-122.4934 37.779575),8,8,8,4,29
43811,17th Ave&Quintara St SE-NS/PS,17AVQUIN,None,7572,37.748592,-122.473834,0,QUINTARA ST,17TH AVE,None,None,None,0,20230512124615,14819460,141,None,POINT (-122.47383 37.748592),44,44,10,8,41
41348,Eddy St&Leavenworth St SE-FS/BZ,EDDYLEA1,EDDYLEAV,4483,37.783682,-122.413964,0,LEAVENWORTH ST,EDDY ST,FS,SE,BZ,1,20230512124615,14810306,141,None,POINT (-122.41396 37.783684),20,20,5,10,36
40656,24th St&Church St SW-NS/BZ,24STCHU1,24STCHUR,3461,37.751644,-122.427545,0,CHURCH ST,24TH ST,NS,SW,BZ,1,20230512124615,14808124,141,None,POINT (-122.42754 37.751644),84,84,3,5,22
41802,La Salle Ave&Ingalls St NE-FS,LSALING0,LSALINGL,5288,37.73077,-122.3814,0,INGALLS ST,LA SALLE AVE,FS,NE,FL,0,20230512124615,14811761,141,None,POINT (-122.3814 37.73077),86,86,2,9,1
43951,Pacific & Powell St MB NW BZ,PACFPOWL,None,8118,37.796619,-122.409372,0,POWELL ST,PACIFIC AVE,None,None,None,0,20230512124615,14820059,141,None,POINT (-122.40937 37.79662),104,104,6,3,6
42023,Ocean Ave&San Leandro Way E-NS/SI,OCENSNL1,OCENSNLE,5806,37.729989,-122.469097,0,SAN LEANDRO WAY,OCEAN AVE,NS,EA,SI,0,20230512124615,14812278,141,None,POINT (-122.46909 37.72999),63,63,10,8,41
43310,Masonic Ave&Haight St NW-NS/PS,MSICHAI0,MSICHAIT,5712,37.77031,-122.44542,0,HAIGHT ST,MASONIC AVE,NS,NW,None,0,20230512124615,14817457,141,None,POINT (-122.44542 37.77031),25,25,7,11,3
41989,Lyon St&Greenwich St SW-FS/BZ,LYONGNW0,LYONGNWH,5331,37.797428,-122.447206,0,GREENWICH ST,LYON ST,FS,SW,BZ,1,20230512124615,14812443,141,None,POINT (-122.447205 37.79743),14,14,4,6,27
42864,Lincoln Way&Funston Ave NW-FS/BZ,LWAYFUN0,LWAYFUNS,5326,37.765813,-122.471032,0,FUNSTON AVE,LINCOLN WY,FS,NW,BZ,0,20230512124615,14813985,141,None,POINT (-122.47103 37.765812),9,9,10,11,12
42054,Market St&Taylor St N-NS/SI,MRKTTAY0,MRKTTAYL,5695,37.782316,-122.410228,4,TAYLOR ST,MARKET ST,NS,NO,SI,0,20230512124615,14812593,141,None,POINT (-122.410225 37.782314),20,20,5,10,34
43192,Avenue B&9TH TI St NW-NS/SB,AVEB.9TH,AVEB.9TH,7004,37.823245,-122.374986,0,9TH TI ST,AVENUE B,NS,NW,FL,0,20230512124615,14817355,141,None,POINT (-122.374985 37.823246),36,36,1,10,37
41812,Hahn St&Sunnydale Ave NE-FS/PS,HAHNSUN1,HAHNSUNY,4937,37.71201,-122.4159,0,SUNNYDALE AVE,HAHN ST,FS,NE,None,0,20230512124615,14811606,141,None,POINT (-122.4159 37.71201),75,75,9,9,40
41759,Lombard St&Fillmore St NW-FS/BZ,LOMBFIL0,LOMBFILL,5275,37.799845,-122.436268,0,FILLMORE ST,LOMBARD ST,NS,NE,BZ,0,20230512124615,14811492,141,None,POINT (-122.43627 37.799847),17,17,4,6,13
41678,Harrison St&8th St N-NS/BZ,HARR 8S0,HARR 8ST,4972,37.773866,-122.408513,0,8TH ST,HARRISON ST,NS,NO,BZ,0,20230512124615,14811129,141,None,POINT (-122.408516 37.773865),32,32,1,10,34
40729,South Van Ness Ave&Market St NS-S/SI,SOVNMRKT,,8088,37.7751,-122.41924,,MARKET ST,SOUTH VAN NESS AVE,,,,,20230512124615,14808453,141,None,POINT (-122.41924 37.7751),32,32,1,10,20
40877,24th St&Hoffman Ave NE-NS/SB,24STHOF0,24STHOFF,3475,37.750977,-122.440504,0,HOFFMAN AVE,24TH ST,NS,NE,None,0,20230512124615,14808748,141,None,POINT (-122.440506 37.750977),51,51,3,5,22
42726,Parnassus Ave&Cole St SW-NS/BZ,PARNCOL1,PARNCOLE,5890,37.764789,-122.449854,0,COLE ST,PARNASSUS AVE,NS,SW,BZ,0,20230512124615,14816871,141,None,POINT (-122.44985 37.76479),114,114,7,11,3
42426,Font Blvd&Serrano Dr W-NS/SB,FONTSERR,,7789,37.719592,-122.479905,0,SERRANO DR,FONT BLVD,,,,0,20230512124615,14819691,141,None,POINT (-122.479904 37.719593),42,42,10,8,16
41905,Monterey Blvd&Plymouth Ave NS-NS/SB,MTRYPLY1,MTRYPLYM,5438,37.730874,-122.457654,0,PLYMOUTH AVE,MONTEREY BLVD,NS,SW,None,0,20230512124615,14812141,141,None,POINT (-122.45766 37.730873),71,71,9,8,41
41885,Industrial St&Revere Ave NE-NS/SB,INDSRVR1,INDSRVRE,5096,37.73913,-122.40305,0,REVERE AVE,INDUSTRIAL ST,NS,NE,None,0,20230512124615,14812092,141,None,POINT (-122.40305 37.73913),82,82,2,9,1
40812,25th Ave&Fulton St NW-NS/PS,25AVFUL0,25AVFULT,3499,37.772689,-122.484295,0,FULTON ST,25TH AVE,NS,NW,None,0,20230512124615,14808770,141,None,POINT (-122.4843 37.77269),8,8,8,4,29
43136,Polk St&Union St NE-FS/BZ,POLKUNI1,POLKUNIN,6003,37.79901,-122.42233,0,UNION ST,POLK ST,FS,NE,BZ,0,20230512124615,14814266,141,None,POINT (-122.42233 37.79901),107,107,4,6,32
42507,California St&19TH Ave SW-NS/BZ,CALI19A1,CALI19AV,3836,37.784109,-122.47871,0,19TH AVE,CALIFORNIA ST,NS,SW,None,1,20230512124615,14816656,141,None,POINT (-122.47871 37.784107),8,8,8,4,29
41819,Haight St&Clayton St SE-FS/BZ,HAITCLT1,HAITCLTN,4947,37.769777,-122.448433,0,CLAYTON ST,HAIGHT ST,NS,SW,BZ,0,20230512124615,14811644,141,None,POINT (-122.44843 37.769775),25,25,7,11,3
43372,Sloat Blvd&45th Ave NW-FS/BZ,SLOA45A1,SLOA45AV,6450,37.7356,-122.503407,0,45TH AVE,SLOAT BLVD,FS,NW,BZ,1,20230512124615,14814457,141,None,POINT (-122.50341 37.7356),40,40,10,7,35
42355,Sacramento St&Franklin St NE-NS/BZ,SACOFRK0,SACOFRKL,6297,37.79118,-122.42407,0,FRANKLIN ST,SACRAMENTO ST,NS,NE,BZ,0,20230512124615,14815067,141,None,POINT (-122.42407 37.79118),102,102,4,6,30
43048,Palou Ave&Keith St W-FS/SB,PALUKETI,PALUKETH,5873,37.732055,-122.387367,0,KEITH ST,PALOU AVE,FS,NO,None,0,20230512124615,14815736,141,None,POINT (-122.38737 37.732056),86,86,2,9,1
42714,Warren Dr&Christopher Dr E-NS/SB,WARNCHP1,WARNCHPR,6911,37.75376,-122.459971,0,CHRISTOPHER DR,WARREN DR,NS,EA,None,0,20230512124615,14816848,141,None,POINT (-122.45997 37.75376),111,111,7,8,14
41853,Jefferson St&Powell St NW-FS/PS,JEFFPOW1,JEFFPOWL,5174,37.808594,-122.413357,0,POWELL ST,JEFFERSON ST,FS,NW,None,0,20230512124615,14811887,141,None,POINT (-122.41336 37.808594),99,99,6,3,23
42105,Noriega St&40th Ave NE-NS/BZ,NORI40A0,NORI40AV,5755,37.753331,-122.498848,0,40TH AVE,NORIEGA ST,NS,NE,BZ,0,20230512124615,14812974,141,None,POINT (-122.49885 37.75333),39,39,10,7,35
43487,West Portal Ave&15th Ave S-NS/SB,W P 15A0,W P 15AV,6899,37.736485,-122.470519,0,15TH AVE,WEST PORTAL AVE,NS,SO,None,0,20230512124615,14817586,141,None,POINT (-122.47052 37.736485),46,46,10,8,41
42485,Arguello Blvd&California St SW-FS,ARGLCAL0,ARGLCALI,3644,37.78556,-122.459254,0,CALIFORNIA ST,ARGUELLO BLVD,FS,SW,BZ,0,20230512124615,14815140,141,None,POINT (-122.45925 37.78556),5,5,8,4,11
41970,Mission St&11th St W-FS/BZ,MISS11S0,MISS11ST,5545,37.774306,-122.417292,0,11TH ST,MISSION ST,FS,WE,BZ,1,20230512124615,14812347,141,None,POINT (-122.41729 37.774307),32,32,5,10,20
42637,Gilman Ave&Bill Walsh Way W-NS/SB,GLMNBWSH,PLYMBROD,5955,37.717502,-122.38699,0,GIANTS DR,GILMAN AVE,NS,NW,None,0,20230512124615,14818324,141,None,POINT (-122.38699 37.717503),88,88,2,9,1
42826,Balboa St&37TH Ave SW-NS/PS,BBOA37A1,BBOA37AV,3062,37.775647,-122.497419,0,37TH AVE,BALBOA ST,NS,SW,None,0,20230512124615,14818522,141,None,POINT (-122.49742 37.775646),8,8,8,4,29
42063,Market St&Hyde St N-NS/SI,MRKTHYD1,MRKTHYDE,5676,37.779105,-122.414379,0,HYDE ST,MARKET ST,NS,NO,BZ,0,20230512124615,14812813,141,None,POINT (-122.414375 37.779106),21,21,5,10,36
41938,Jackson St&Scott St SW-NS/PS,JACKSCO1,JACKSCOT,5161,37.791772,-122.439612,0,SCOTT ST,JACKSON ST,NS,SW,None,0,20230512124615,14811786,141,None,POINT (-122.43961 37.79177),102,102,4,6,30
42850,Gilman Ave&Jennings St E-NS/PS,GLMNJEN1,GLMNJENN,4786,37.721413,-122.393595,0,JENNINGS ST,GILMAN AVE,NS,EA,None,0,20230512124615,14813936,141,None,POINT (-122.39359 37.721413),88,88,2,9,1
41909,McAllister St&Van Ness Ave SE-FS/BZ,MCALV.N1,MCALV.N.,5405,37.780052,-122.420178,0,VAN NESS AVE,MCALLISTER ST,FS,SE,BZ,1,20230512124615,14811965,141,None,POINT (-122.42018 37.780052),21,21,4,10,36
43101,Santiago St&14th Ave SW-NS,SNTG14A1,SNTG14AV,6467,37.74508,-122.47049,0,14TH AVE,SANTIAGO ST,NS,SW,None,0,20230512124615,14818803,141,None,POINT (-122.47049 37.74508),44,44,10,8,41
42876,Sacramento St&Kearny St NW-FS/BZ,SACOKRN0,SACOKRNY,6302,37.79362,-122.40482,0,KEARNY ST,SACRAMENTO ST,FS,NW,BZ,1,20230512124615,14815458,141,None,POINT (-122.40482 37.79362),104,104,6,3,6
43693,Fulton St&6TH Ave NW-FS/BZ,FULT.6A0,FULT.6AV,4732,37.773639,-122.463848,0,06TH AVE,FULTON ST,FS,NW,BZ,0,20230512124615,14816230,141,None,POINT (-122.463844 37.77364),5,5,8,4,11
41930,Lincoln Way&9th Ave NW-FS/BZ,LWAY 9A0,LWAY 9AV,5300,37.766001,-122.466746,0,9TH AVE,LINCOLN WY,FS,NW,BZ,1,20230512124615,14811769,141,None,POINT (-122.46674 37.766003),9,9,10,11,12
41669,Innes Ave&Hunters Point Blvd N-FS,INESH P1,INESH P,5103,37.732915,-122.377229,0,HUNTERS POINT BLVD,INNES AVE,FS,NO,None,0,20230512124615,14811093,141,None,POINT (-122.37723 37.732914),76,76,2,9,1
40761,Balboa St&23RD Ave SW-NS/SB,BBOA23A1,BBOA23AV,3050,37.77633,-122.482417,0,23RD AVE,BALBOA ST,NS,SW,None,1,20230512124615,14807977,141,None,POINT (-122.482414 37.77633),8,8,8,4,29
41476,Geary Blvd&Webster St NE-NS/BZ,GEARWEB0,GEARWEBS,4769,37.784641,-122.431021,0,WEBSTER ST,GEARY BLVD,NS,NE,BZ,1,20230512124615,14810683,141,None,POINT (-122.43102 37.78464),101,101,4,11,39
42922,Whitney Young Cir&Progress St SE-FS,WTYGPRG0,WTYGPRGS,6983,37.733248,-122.383082,0,PROGRESS ST,WHITNEY YOUNG CIR,FS,SE,None,0,20230512124615,14817094,141,None,POINT (-122.38308 37.73325),86,86,2,9,1
43782,Market St&5th St North N-NS/SI,MRKT5ST0,MRKT5STN,5655,37.784082,-122.407992,0,5TH ST NORTH,MARKET ST,NS,NO,SI,0,20230512124615,14816364,141,None,POINT (-122.40799 37.78408),19,19,5,10,34
40959,Chestnut St&Van Ness Ave SW-NS/BZ,CHESV N1,CHESV N,3957,37.802199,-122.424894,0,VAN NESS AVE,CHESTNUT ST,NS,SW,BZ,0,20230512124615,14809073,141,None,POINT (-122.4249 37.8022),17,17,4,6,13
42766,Judah St&La Playa St NW-FS,JUDALAP0,None,7219,37.760349,-122.508685,0,LA PLAYA,JUDAH ST,None,None,None,0,20230512124615,14813877,141,None,POINT (-122.50868 37.76035),39,39,10,7,35
41014,20th St&Collingwood St NW-FS/SB,20STCLW0,20STCLWD,3414,37.757677,-122.435966,0,COLLINGWOOD ST,20TH ST,FS,NW,None,0,20230512124615,14808930,141,None,POINT (-122.43597 37.757675),115,115,3,5,5
43020,Sutter St&Steiner St NE-NS/BZ,SUTTSTE0,SUTTSTEI,6609,37.785942,-122.434793,0,STEINER ST,SUTTER ST,NS,NE,BZ,1,20230512124615,14814167,141,None,POINT (-122.43479 37.785942),103,103,4,11,30
40862,46th Ave&Judah St SE-NS/PS,46AVJUD1,46AVJUDA,3577,37.760395,-122.505901,0,JUDAH ST,46TH AVE,NS,SE,None,1,20230512124615,14808724,141,None,POINT (-122.5059 37.760395),39,39,10,7,35
41585,Lincoln Way&17th Ave SW-NS/BZ,LWAY17A1,LWAY17AV,5307,37.76546,-122.47524,0,17TH AVE,LINCOLN WAY,NS,SW,BZ,1,20230512124615,14810975,141,None,POINT (-122.47524 37.76546),109,109,10,7,14
42425,Sports Basement Parking Lot NS SE/BB,SPRTBSMT,None,8025,37.80304,-122.45827,,MASON ST,OLD MASON ST,None,None,None,,20230512124615,14819690,141,None,POINT (-122.45827 37.80304),3,3,,6,27
43207,Broadway&Steiner St NE-NS/PS,BDWYSTE1,BDWYSTEI,3085,37.794131,-122.436442,0,STEINER ST,BROADWAY,NS,NE,None,0,20230512124615,14818850,141,None,POINT (-122.43644 37.794132),102,102,4,6,30
41491,Eddy St&Scott St SW-NS/PS,EDDYSCO1,EDDYSCOT,4492,37.780724,-122.43736,0,SCOTT ST,EDDY ST,NS,SW,None,0,20230512124615,14810321,141,None,POINT (-122.43736 37.780724),97,97,4,11,39
41545,Hayes St&Shrader St NE-NS/BZ,HAYSSHR0,HAYSSHRA,5007,37.77317,-122.452502,0,SHRADER ST,HAYES ST,NS,NE,BZ,1,20230512124615,14810903,141,None,POINT (-122.4525 37.77317),24,24,7,11,18
41074,Clayton St&Market St S-NS/PS,CLTNMRK0,CLTNMRKT,4080,37.758222,-122.444319,0,MARKET ST,CLAYTON ST,NS,SO,None,0,20230512124615,14809544,141,None,POINT (-122.44432 37.75822),47,47,3,5,5
43834,Transit Center Bay C,TBT BAYC,None,7915,37.789957,-122.395493,0,MISSION ST,BEALE ST,None,None,None,0,20230512124615,14819519,141,None,POINT (-122.39549 37.789955),32,32,1,10,8
42455,Jones St&Turk ST SW-FS/PS,JONETURK,,8050,37.782959,-122.412463,,TURK ST,JONES ST,,,,,20230512124615,14819746,141,None,POINT (-122.41246 37.78296),20,20,5,10,36
41720,Kearny St&Sutter St SE-NS/BZ,KRNYSUT1,KRNYSUTT,4826,37.789746,-122.403724,0,SUTTER ST,KEARNY ST,NS,SE,BZ,1,20230512124615,14811192,141,None,POINT (-122.403725 37.789745),19,19,6,3,8
43866,Ulloa St&West Portal Ave SE-FS/PS,ULOAW.P1,,7976,37.740733,-122.46564,0,None,ULLOA ST,,,,0,20230512124615,14819782,141,None,POINT (-122.46564 37.740734),46,46,10,8,41
43111,Balboa St&10TH Ave NE-NS/PS,BBOA10A0,BBOA10AV,3038,37.777101,-122.46817,0,10TH AVE,BALBOA ST,NS,NE,None,1,20230512124615,14818842,141,None,POINT (-122.46817 37.7771),5,5,8,4,11
41892,Monterey Blvd&Baden St SW-NS/PS,MTRYBAD1,MTRYBADN,5423,37.731516,-122.439853,0,BADEN ST,MONTEREY BLVD,NS,SW,None,0,20230512124615,14812118,141,None,POINT (-122.43985 37.731518),95,95,9,8,41
43106,Sunset Blvd&Santiago St NW-NS/SB,SUNSSNT0,SUNSSNTG,6553,37.744223,-122.494672,0,SANTIAGO ST,SUNSET BLVD,NS,NW,None,0,20230512124615,14818818,141,None,POINT (-122.494675 37.744225),39,39,10,7,35
43629,Rhode Island St&25th St NW-NS/SB,R IS25S0,R IS25ST,6199,37.75211,-122.401467,0,25TH ST,RHODE ISLAND ST,NS,NW,None,0,20230512124615,14819241,141,None,POINT (-122.40147 37.75211),54,54,2,9,26
43013,Duboce Ave&Noe St-NS,DUBONOE0,DUBONOE.,7075,37.76922,-122.43365,0,NOE ST,DUBOCE AVE,NS,NE,None,0,20230512124615,14814130,141,None,POINT (-122.43365 37.76922),28,28,7,5,3
43897,San Bruno Ave&Harkness Ave NE-FS/BZ,SBROHARK,,7899,37.718043,-122.400114,,HARKNESS AVE,SAN BRUNO AVE,,,,,20230512124615,14819880,141,None,POINT (-122.400116 37.718044),91,91,9,9,25
42917,3rd St&Marin St NW-NS/SI,3ST MRN1,3ST MRN1,7364,37.749097,-122.387525,0,MARIN ST,03RD ST,NS,NW,SI,0,20230512124615,14817076,141,None,POINT (-122.38753 37.749096),56,56,2,9,1
40960,California St&28TH Ave NE-NS/PS,CALI28A0,CALI28AV,3841,37.783798,-122.488074,0,28TH AVE,CALIFORNIA ST,NS,NE,None,0,20230512124615,14809076,141,None,POINT (-122.488075 37.7838),1,1,8,6,33
43307,Mission St&4th St W-FS/BZ,MISS 4S0,MISS 4ST,5534,37.78436,-122.40452,0,04TH ST,MISSION ST,FS,WE,BZ,1,20230512124615,14817450,141,None,POINT (-122.40452 37.78436),32,32,1,10,34
42556,Hudson Ave&Ardath Ct NW-NS,HUDSARD0,HUDSARDT,5042,37.73469,-122.38305,0,ARDATH CT,HUDSON AVE,NS,NW,FL,0,20230512124615,14813622,141,None,POINT (-122.38305 37.73469),86,86,2,9,1
43191,Turk St&Parker Ave SW-NS/BZ,TURKPRK1,TURKPRKR,6728,37.777754,-122.453476,0,PARKER AVE,TURK BLVD,NS,SW,BZ,1,20230512124615,14817353,141,None,POINT (-122.453476 37.777756),12,12,7,4,18
43541,Visitacion Ave&Schwerin St W-NS/PS,VISISHW1,VISISHWN,6855,37.71218,-122.41085,0,SCHWERIN ST,VISITACION AVE,NS,WE,None,0,20230512124615,14819227,141,None,POINT (-122.41085 37.71218),75,75,9,9,40
42593,Oakdale Ave&Griffith St W-NS/PS,OAKDGRI1,OAKDGRIF,5776,37.728223,-122.379318,0,BALDWIN CT,OAKDALE AVE,NS,WE,None,0,20230512124615,14815209,141,None,POINT (-122.37932 37.72822),78,78,2,9,1
42261,Pacific Ave&Jones St NE-NS/PS,PACFJON1,PACFJONE,5840,37.79596,-122.41491,0,JONES ST,PACIFIC AVE,NS,NE,None,0,20230512124615,14816497,141,None,POINT (-122.41491 37.79596),107,107,6,3,21
42444,20th St&Missouri St NE-NS/SB,20STMIS3,,8064,37.760094,-122.396167,,TEXAS ST,20TH ST,,,,,20230512124615,14819729,141,None,POINT (-122.396164 37.760094),54,54,2,9,26
40719,17th Ave&Rivera St SE-NS,17AVRVR0,17AVRVRA,3305,37.746745,-122.473707,0,RIVERA ST,17TH AVE,NS,SE,None,1,20230512124615,14808437,141,None,POINT (-122.47371 37.746746),44,44,10,8,41
42173,Teresita Blvd&Foerster St NE-NS/PS,TEREFOE0,TEREFOER,6667,37.734345,-122.448776,0,FOERSTER ST,TERESITA BLVD,NS,NE,None,0,20230512124615,14813373,141,None,POINT (-122.44878 37.734344),72,72,9,8,41
42075,Naples St&Rolph St S-NS/PS,NAPLRLP1,NAPLRLPH,5482,37.713457,-122.436626,0,ROLPH ST,NAPLES ST,NS,SO,None,1,20230512124615,14812679,141,None,POINT (-122.43662 37.713455),58,58,9,1,7
42419,16th Street & 4th Street NW/FS/BZ,16ST4ST1,,7767,37.766864,-122.390891,,04TH ST,16TH ST,,,,,20230512124615,14819681,141,None,POINT (-122.39089 37.766865),34,34,1,10,4
41743,Mansell St&Hamilton St N-NS/BZ,MANSHML1,MANSHMLT,5343,37.720098,-122.406916,0,HAMILTON ST,MANSELL ST,NS,NO,BZ,0,20230512124615,14811273,141,None,POINT (-122.40691 37.720097),91,91,2,9,25
41553,La Playa St&Cabrillo St SW-FS/BZ,LAPLCBR1,LAPLCBRO,4843,37.773214,-122.51006,0,CABRILLO ST,LA PLAYA ST,FS,SW,BZ,1,20230512124615,14810917,141,None,POINT (-122.51006 37.773212),8,8,8,4,29
43889,Morse St&Lowell St S-NS/BZ,MORSLOWL,None,7742,37.711021,-122.446211,,BRUNSWICK ST,LOWELL ST,None,None,None,,20230512124615,14819858,141,None,POINT (-122.44621 37.71102),58,58,9,1,7
42929,Taraval St&30th Ave SW-NS/PS,TARA30A1,TARA30AV,6627,37.742461,-122.487615,0,30TH AVE,TARAVAL ST,NS,SW,None,0,20230512124615,14818566,141,None,POINT (-122.48762 37.742462),40,40,10,7,35
43197,Clayton St&Corbett Ave E-NS/PS,CLTNCRB1,CLTNCRBT,4075,37.758793,-122.445935,0,CORBETT AVE,CLAYTON ST,NS,EA,None,0,20230512124615,14817366,141,None,POINT (-122.44594 37.758793),115,115,7,5,5
43507,Right Of Way&18th St SE-NS/SB,ROW 18S1,ROW 18ST,6213,37.761192,-122.428184,0,18TH ST,MUNI RAIL - J RROW,NS,SE,None,0,20230512124615,14817674,141,None,POINT (-122.428185 37.761192),37,37,3,5,5
41185,Cortland Ave&Prentiss St NE-NS/PS,CORTPNT1,CORTPNTS,4158,37.73978,-122.41199,0,PRENTISS ST,CORTLAND AVE,NS,NE,None,0,20230512124615,14809865,141,None,POINT (-122.41199 37.73978),83,83,9,2,2
42238,Bayshore Blvd&Sunnydale Ave. N-FS,BSHRSND0,None,7398,37.708944,-122.405044,0,SUNNYDALE AVE,BAYSHORE BLVD,None,None,None,0,20230512124615,14813258,141,None,POINT (-122.405045 37.708942),89,89,9,9,1
43032,Post St&Hyde St SE-FS/BZ,POSTHYD1,POSTHYDE,6126,37.78724,-122.41626,0,HYDE ST,POST ST,FS,SE,BZ,0,20230512124615,14815653,141,None,POINT (-122.41626 37.78724),50,50,6,10,36
42584,Union St&Fillmore St NW-FS/BZ,UNINFIL0,UNINFILL,6754,37.797124,-122.435661,0,FILLMORE ST,UNION ST,FS,NW,BZ,0,20230512124615,14815175,141,None,POINT (-122.43566 37.797123),15,15,4,6,13
42347,33rd Ave&Geary Blvd SE-NS/SB,33AVGEA3,33AVGEAR,3559,37.779548,-122.493215,0,GEARY BLVD,33RD AVE,NS,SE,None,1,20230512124615,14815048,141,None,POINT (-122.49322 37.77955),8,8,8,4,29
40972,Bryant St&21ST St SW-FS/BB,BRYT21S0,BRYT21ST,3741,37.7574,-122.40961,0,21ST ST,BRYANT ST,FS,SW,BB,0,20230512124615,14809109,141,None,POINT (-122.40961 37.7574),53,53,3,2,20
42053,Market St&2nd St N-NS/SI,MRKT.2S0,MRKT.2ST,5639,37.789353,-122.401306,0,2ND ST,MARKET ST,NS,NO,SI,0,20230512124615,14812568,141,None,POINT (-122.401306 37.789352),108,108,6,10,8
43733,19th Ave& Winston Dr NW-NS/SB,19AVWIN2,None,7448,37.727258,-122.475098,0,WINSTON DR,19TH AVE,None,None,None,0,20230512124615,14819353,141,None,POINT (-122.4751 37.727257),41,41,10,8,16
40882,8th St & Market St S-FS/BZ,8STMRK0,8STMRKT,3209,37.778498,-122.414597,0,MARKET ST,8TH ST,FS,SO,BZ,1,20230512124615,14808468,141,None,POINT (-122.4146 37.7785),32,32,5,10,34
43319,Teresita Blvd&Reposa Way N-FS/SB,TERERPS1,TERERPSA,6678,37.740975,-122.449223,0,REPOSA WAY,TERESITA BLVD,FS,NO,None,0,20230512124615,14818958,141,None,POINT (-122.44923 37.740974),72,72,9,8,41
42159,Market St&Laguna St N-NS/SI,MRKTLGN0,MRKTLGNA,5681,37.770953,-122.424666,0,LAGUNA ST,MARKET ST,NS,NO,SI,0,20230512124615,14812879,141,None,POINT (-122.42467 37.770954),27,27,1,5,9
43042,Sloat Blvd&19th Ave NE-NS/BZ,SLOA19A0,SLOA19AV,6435,37.73478,-122.474493,0,19TH AVE,SLOAT BLVD,NS,NE,BZ,1,20230512124615,14815718,141,None,POINT (-122.474495 37.73478),46,46,10,8,41
42207,Laguna Honda Bl&Clarendon Ave SW-FS,LGHNCLD0,LGHNCLDN,4878,37.751119,-122.461346,0,CLARENDON AVE,LAGUNA HONDA BLVD,MB,NE,None,0,20230512124615,14813618,141,None,POINT (-122.46135 37.751118),45,45,7,8,41
43788,San Bruno Ave&Paul Ave SE-NS/PS,SBROPAU0,SBROPAUL,6363,37.723647,-122.401863,0,PAUL AVE,SAN BRUNO AVE,NS,SE,None,0,20230512124615,14817897,141,None,POINT (-122.40186 37.723648),91,91,2,2,25
42020,Mission St&Trumbull St SE-NS/BZ,MISSTRU1,MISSTRUM,5624,37.73066,-122.42927,0,TRUMBULL ST,MISSION ST,NS,SE,BZ,1,20230512124615,14812266,141,None,POINT (-122.42927 37.73066),94,94,9,1,7
41717,Gilman Ave&Ingalls St E-NS/SB,GLMNING1,GLMNINGL,4785,37.72035,-122.391729,0,INGALLS ST,GILMAN AVE,NS,EA,None,0,20230512124615,14811373,141,None,POINT (-122.39173 37.72035),88,88,2,9,1
42708,Powell St&Lombard St SW-FS/BZ,POWLLOM0,POWLLOMB,6061,37.80281,-122.41146,0,LOMBARD ST,POWELL ST,FS,SW,BZ,1,20230512124615,14816825,141,None,POINT (-122.41146 37.80281),106,106,6,3,23
41127,California St&Front St NE-NS,CALIFRN0,CALIFRNT,3863,37.793438,-122.398643,0,FRONT ST,CALIFORNIA ST,NS,NE,None,0,20230512124615,14809404,141,None,POINT (-122.39864 37.793438),108,108,6,3,8
41659,Leavenworth St&Post St SE-NS/BB,LEAVPOS1,LEAVPOST,4869,37.787313,-122.414875,0,POST ST,LEAVENWORTH ST,NS,SE,BZ,1,20230512124615,14810869,141,None,POINT (-122.41487 37.78731),50,50,6,3,36
43865,Brotherhood Way&Grace Community Church NE-NS/SB,BRHDGRC0,,7801,37.714595,-122.480189,0,CHURCH ACCESS RD,BROTHERHOOD WY,,,,0,20230512124615,14819781,141,None,POINT (-122.48019 37.714596),42,42,10,8,16
41331,California St&Spruce St NE-NS/BZ,CALISPR0,CALISPRC,3896,37.786462,-122.453522,0,PARKER AVE,CALIFORNIA ST,NS,NE,BZ,1,20230512124615,14810255,141,None,POINT (-122.45352 37.78646),10,10,8,6,31
41364,Fulton St&40TH Ave SE-FS/BZ,FULT40A1,FULT40AV,4218,37.77179,-122.49991,0,40TH AVE,FULTON ST,FS,SE,FL,1,20230512124615,14810166,141,None,POINT (-122.49991 37.77179),9,9,8,4,12
41956,Jackson St&Hyde St NE-NS,JACKHYD0,JACKHYDE,5150,37.79464,-122.417994,0,HYDE ST,JACKSON ST,NS,NE,None,0,20230512124615,14811830,141,None,POINT (-122.41799 37.79464),16,16,6,3,32
43097,Quintara St&16th Ave SW-NS/PS,QUIN16A1,QUIN16AV,6137,37.74872,-122.47298,0,16TH AVE,QUINTARA ST,NS,SW,FL,0,20230512124615,14818794,141,None,POINT (-122.47298 37.74872),44,44,10,8,41
41238,Castro St&19TH St NW-NS/PS,CTRO19S0,CTRO19ST,4316,37.75939,-122.43491,0,19TH ST,CASTRO ST,NS,NW,None,0,20230512124615,14809818,141,None,POINT (-122.43491 37.75939),38,38,3,5,5
41199,Clay St&Montgomery St SE-FS/BZ,CLAYMTG1,CLAYMTGY,4025,37.794682,-122.40277,0,MONTGOMERY ST,CLAY ST,FS,SE,BZ,1,20230512124615,14809887,141,None,POINT (-122.40277 37.79468),108,108,6,3,6
42200,Columbus Ave&Mason St E-NS/BZ,COLMMAS0,COLMMASN,4115,37.802089,-122.41266,0,MASON ST,COLUMBUS AVE,NS,EA,BZ,1,20230512124615,14813587,141,None,POINT (-122.41266 37.80209),106,106,6,3,23
41157,Corbett Ave&Danvers St W-FS/SB,CRBTDAN0,CRBTDANV,4175,37.761327,-122.444078,0,DANVERS ST,CORBETT AVE,FS,WE,None,0,20230512124615,14809692,141,None,POINT (-122.44408 37.761326),115,115,7,5,5
40690,9th Ave&Ortega St NW-NS/PS,.9AVORT0,9AVORTG,3226,37.752939,-122.465631,0,ORTEGA ST,9TH AVE,NS,NW,None,0,20230512124615,14808372,141,None,POINT (-122.46563 37.752937),44,44,10,8,14
41093,30th Ave&Santiago St NW-NS/PS,30AVSNT0,30AVSNTG,3530,37.74451,-122.48765,0,SANTIAGO ST,30TH AVE,NS,NW,FL,0,20230512124615,14809296,141,None,POINT (-122.48765 37.74451),40,40,10,7,35
43682,Taylor St&Francisco St SE-NS,TAYLFNC0,TAYLFNCO,6646,37.804383,-122.414952,0,FRANCISCO ST,TAYLOR ST,NS,SE,None,0,20230512124615,14814760,141,None,POINT (-122.414955 37.804382),106,106,6,3,23
42413,16th St& Rhode Island St SW-NS/SI,16STRIS0,,7761,37.765994,-122.402856,,KANSAS ST,16TH ST,,,BZ,,20230512124615,14819667,141,None,POINT (-122.402855 37.765995),54,54,1,9,4
42028,Mission St&Beale St W-FS/BZ,MISSBEA0,MISSBEAL,5579,37.791144,-122.395916,0,BEALE ST,MISSION ST,FS,WE,BZ,1,20230512124615,14812317,141,None,POINT (-122.39592 37.791145),108,108,1,10,8
41438,Lawton St&Funston Ave SE-FS/PS,LAWTFUN1,LAWTFUNS,4859,37.7582,-122.47003,0,FUNSTON AVE,LAWTON ST,FS,SE,FL,0,20230512124615,14810468,141,None,POINT (-122.47003 37.7582),44,44,10,8,14
43598,Kiska Rd&Reardon Rd NE-NS,KISKREA0,KISKREAR,4817,37.73004,-122.37711,0,REARDON RD,KISKA RD,NS,NE,FL,0,20230512124615,14816215,141,None,POINT (-122.37711 37.73004),78,78,2,9,1
43533,Post St&Larkin St SE-FS/BZ,POSTLAR1,POSTLARK,6016,37.78705,-122.41772,0,LARKIN ST,POST ST,FS,SE,BZ,0,20230512124615,14819210,141,None,POINT (-122.41772 37.78705),50,50,6,10,36
41985,King St&2nd St W-NS/SI,KING.2SW,KING.2ST,5237,37.779621,-122.389824,0,02ND ST,KING ST,NS,WE,SI,0,20230512124615,14812401,141,None,POINT (-122.389824 37.77962),31,31,1,10,4
41961,Hyde St&Green St E-MI,HYDEGRE0,HYDEGREN,5074,37.798308,-122.418784,0,GREEN ST,HYDE ST,MI,EA,None,0,20230512124615,14811841,141,None,POINT (-122.418785 37.79831),107,107,6,3,32
40918,Vicente St&West Portal Ave N-FS/BZ,VCTEW.P1,None,8085,37.739849,-122.467117,0,WEST PORTAL AVE,VICENTE ST,None,None,None,0,20230512124615,14809059,141,None,POINT (-122.46712 37.73985),46,46,10,8,41
43700,Saint Francis&San Fernando SW-NS/SB,STFRSNF1,STFRSNFR,6508,37.734709,-122.469797,0,SAN FERNANDO WAY,SAINT FRANCIS BLVD,NS,SW,None,0,20230512124615,14816255,141,None,POINT (-122.469795 37.73471),116,116,10,8,41
43812,Quintara St&17th Ave NE-NS/SB,QUIN17AV,None,7573,37.748833,-122.473799,0,17TH AVE,QUINTARA ST,None,None,None,0,20230512124615,14819462,141,None,POINT (-122.4738 37.748833),44,44,10,8,14
42931,Silver Ave&Revere Ave W-FS/PS,SILVRVR1,SILVRVRE,6420,37.736361,-122.398888,0,REVERE AVE,SILVER AVE,FS,WE,None,0,20230512124615,14818577,141,None,POINT (-122.39889 37.736362),87,87,2,9,1
42015,Mission St&Flournoy St N-NS/PS,MISSFLN0,MISSFLNY,5588,37.70682,-122.45906,0,FLOURNOY ST,MISSION ST,NS,NO,None,0,20230512124615,14812250,141,None,POINT (-122.45906 37.70682),,,,,
43104,Frederick St&Masonic Ave SW-NS/PS,FREDMSIC,FREDMSIC,7025,37.76735,-122.444823,0,MASONIC AVE,FREDERICK ST,NS,SW,None,0,20230512124615,14818810,141,None,POINT (-122.444824 37.76735),112,112,7,5,3
41462,Castro St&Elizabeth St W-MI/SB,CTROELI0,CTROELIZ,4333,37.752083,-122.434248,0,ELIZABETH ST,CASTRO ST,MI,WE,None,0,20230512124615,14810640,141,None,POINT (-122.43425 37.752083),84,84,3,5,22
40832,30th St&Sanchez St SW-NS/PS,30STSNC0,30STSNCZ,3544,37.74191,-122.42902,0,SANCHEZ ST,30TH ST,NS,SW,None,0,20230512124615,14808836,141,None,POINT (-122.42902 37.74191),59,59,9,5,10
41596,Folsom St&24TH St NE-FS/BB,FOLS24S1,FOLS24ST,4677,37.752757,-122.414024,0,24TH ST,FOLSOM ST,FS,NE,BZ,1,20230512124615,14810718,141,None,POINT (-122.414024 37.752758),53,53,3,2,20
42069,City College Pedestrian Bridge N-MB,OCENCCB1,OCENCCBR,5784,37.72304,-122.451448,0,SAN JOSE AVE,OCEAN AVE,MB,NO,SI,1,20230512124615,14812664,141,None,POINT (-122.45145 37.72304),95,95,9,8,24
43420,Silver Ave&Boylston St W-FS/PS,SILVBOY1,SILVBOYL,6396,37.730913,-122.410839,0,BOYLSTON ST,SILVER AVE,FS,WE,None,0,20230512124615,14817573,141,None,POINT (-122.410835 37.73091),91,91,2,2,25
42630,Pine St&Montgomery St NE-NS/SB,PINEMTG0,PINEMTGY,5944,37.791941,-122.402542,0,None,None,NS,NE,None,0,20230512124615,14818281,141,None,POINT (-122.40254 37.791943),108,108,6,3,8
40644,18th St&Castro St SE-FS/BZ,18STCTR0,18STCTRO,3326,37.760845,-122.434842,0,CASTRO ST,18TH ST,FS,SE,BZ,1,20230512124615,14808090,141,None,POINT (-122.434845 37.760845),38,38,3,5,5
41844,Hyde St&North Point St W-MI,HYDEN P1,HYDEN PT,5081,37.805705,-122.420455,0,NORTH POINT ST,HYDE ST,MI,WE,None,0,20230512124615,14811865,141,None,POINT (-122.420456 37.805706),98,98,6,6,32
41495,The Embarcadero&Bay St E-FS/SI,EMBRBA98,EMBR BAY,4501,37.806945,-122.406278,0,BAY ST,THE EMBARCADERO,FS,NE,SI,0,20230512124615,14810329,141,None,POINT (-122.40628 37.806946),99,99,6,3,23
41624,Fillmore St&Cervantes Blvd NW-NS,FILLCVT0,FILLCVTS,4610,37.802817,-122.436806,0,BAY ST,FILLMORE ST,NS,NW,BZ,0,20230512124615,14810805,141,None,POINT (-122.436806 37.80282),17,17,4,6,13
42235,Bayshore Blvd&Arleta Ave/Blanken Ave N-NS/SI,BSHRARB1,None,7395,37.712253,-122.402316,0,BLANKEN AVE,BAYSHORE BLVD,None,None,None,0,20230512124615,14813234,141,None,POINT (-122.40231 37.712254),89,89,9,9,1
41054,De Haro St&Mariposa St SE-NS/SB,DHROMAR1,DHROMARI,4357,37.763504,-122.401368,0,MARIPOSA ST,DE HARO ST,NS,SE,None,0,20230512124615,14809499,141,None,POINT (-122.40137 37.763504),54,54,2,9,26
42327,West Portal Station N-FS/SB,W.P..ST0,W.P..STA,6739,37.740991,-122.465766,0,ULLOA ST,MUNI METRO TNL,FS,NO,None,0,20230512124615,14814972,141,None,POINT (-122.46577 37.74099),46,46,10,8,41
42373,Stockton St&Lombard St SE-NS/PS,STOKLOM0,STOKLOMB,6519,37.80313,-122.40969,0,LOMBARD ST,STOCKTON ST,NS,SE,None,0,20230512124615,14816570,141,None,POINT (-122.40969 37.80313),106,106,6,3,23
43538,Roosevelt Way&15th St S-NS/SB,RSVT15ST,RSVT15ST,6233,37.766493,-122.439505,0,15TH ST,ROOSEVELT WAY,NS,SO,None,0,20230512124615,14819219,141,None,POINT (-122.43951 37.766495),113,113,7,5,5
41109,95 Buckingham Way SW-NS/SB,BUCK H91,BUCK H95,3798,37.72597,-122.47714,0,None,BUCKINGHAM WAY,NS,SW,None,0,20230512124615,14809340,141,None,POINT (-122.47714 37.72597),41,41,10,8,16
42502,Beverly St&Garfield St NW-NS/SB,BEVRGAR0,BEVRGARF,3689,37.719728,-122.471739,0,GARFIELD ST,BEVERLY ST,NS,NW,None,0,20230512124615,14816632,141,None,POINT (-122.47174 37.719727),64,64,10,1,24
40673,15th Ave&Pacheco St NW-NS/PS,15AVPAC0,15AVPACH,3264,37.75081,-122.47196,0,PACHECO ST,15TH AVE,NS,NW,FL,0,20230512124615,14808176,141,None,POINT (-122.47196 37.75081),44,44,10,8,14
43503,Teresita Blvd&Isola Way E-MB/SB,TEREISL1,TEREISLA,6672,37.74184,-122.450472,0,ISOLA WAY,TERESITA BLVD,MB,EA,None,0,20230512124615,14817653,141,None,POINT (-122.45047 37.74184),72,72,9,8,41
41750,Judah St&19th Ave NE-NS/SI,JUDA19A0,JUDA19AV,5199,37.761743,-122.476921,0,19TH AVE,JUDAH ST,NS,NE,SI,0,20230512124615,14811023,141,None,POINT (-122.47692 37.76174),109,109,10,7,14
43710,Sacramento St&Webster St SW-NS/BZ,SACOWEB1,SACOWEBS,6320,37.789987,-122.4325,0,WEBSTER ST,SACRAMENTO ST,NS,SW,BZ,1,20230512124615,14816280,141,None,POINT (-122.4325 37.789986),102,102,4,6,30
42055,Market St&Van Ness Ave N-NS/SI,MRKTV.N0,MRKTV.N.,5696,37.775198,-122.419252,0,SOUTH VAN NESS AVE,MARKET ST,NS,NO,SI,0,20230512124615,14812615,141,None,POINT (-122.41925 37.7752),21,21,1,10,36
41298,Crescent Ave&Andover St SW-NS/PS,CRESAND1,CRESANDV,4190,37.734832,-122.416942,0,ANDOVER ST,CRESCENT AVE,NS,SW,None,1,20230512124615,14810098,141,None,POINT (-122.41694 37.734833),61,61,9,2,2
42358,900 Teresita Blvd NE-NS/AB,TEREH900,TEREH900,6660,37.733953,-122.446359,0,None,TERESITA BLVD,NS,NE,AB,0,20230512124615,14816525,141,None,POINT (-122.44636 37.73395),72,72,9,8,41
41227,Geary St&Jones St NW-FS/BZ,GEARJON0,GEARJONE,4300,37.786769,-122.413332,0,JONES ST,GEARY ST,FS,NW,BZ,1,20230512124615,14809803,141,None,POINT (-122.41333 37.78677),50,50,6,3,36
41124,California St&10TH Ave SW-NS/BZ,CALI10A1,CALI10AV,3830,37.784551,-122.468963,0,10TH AVE,CALIFORNIA ST,NS,SW,BZ,0,20230512124615,14809390,141,None,POINT (-122.46896 37.78455),5,5,8,4,11
43735,Ocean Ave&Otsego Ave NE-NS/BZ,OCENOTSE,None,7638,37.723433,-122.440816,,OTSEGO AVE,OCEAN AVE,None,None,None,,20230512124615,14819370,141,None,POINT (-122.44082 37.723434),94,94,9,1,28
41953,Mission St&9th St E-FS/BZ,MISS 9S1,MISS 9ST,5542,37.77645,-122.41431,0,9TH ST,MISSION ST,FS,EA,BZ,0,20230512124615,14811822,141,None,POINT (-122.41431 37.77645),32,32,1,10,34
43554,Topeka Ave&Bridge View Dr E-NS,TPKABRV0,TPKABRVW,6702,37.7333,-122.39762,0,BRIDGE VIEW DR,TOPEKA AVE,NS,EA,FL,0,20230512124615,14814622,141,None,POINT (-122.39762 37.7333),87,87,2,9,1
42508,Cesar Chavez St&Florida St SW-NS/BZ,CHAVFLO1,CHAVFLOR,3930,37.74823,-122.40976,0,FLORIDA ST,CESAR CHAVEZ ST,NS,SW,BZ,0,20230512124615,14816660,141,None,POINT (-122.40976 37.74823),60,60,3,2,2
41277,Fulton St&Stanyan St SE-FS/BZ,FULTSTA1,FULTSTAN,4235,37.774756,-122.454519,0,STANYAN ST,FULTON ST,FS,SE,BZ,0,20230512124615,14810055,141,None,POINT (-122.45452 37.774757),12,12,7,4,18
43316,Market St&Church St N-NS/SI,MRKTCHU0,MRKTCHUR,5661,37.767705,-122.428778,0,14TH ST,MARKET ST,NS,NO,SI,0,20230512124615,14817464,141,None,POINT (-122.42878 37.767704),28,28,3,5,5
43186,Hampshire St&24th St SE-NS/SB,HAMP24S1,HAMP24ST,4964,37.752826,-122.407218,0,24TH ST,HAMPSHIRE ST,NS,SE,None,0,20230512124615,14817329,141,None,POINT (-122.40722 37.752827),53,53,3,2,20
42816,Wisconsin St&26th St NE-FS/PS,WISC26S1,WISC26ST,6962,37.7513,-122.39832,0,26TH ST,WISCONSIN ST,FS,NE,None,0,20230512124615,14818474,141,None,POINT (-122.39832 37.7513),54,54,2,9,26
42624,Polk St&Post St SE-FS/BZ,POLKPOS1,POLKPOST,5997,37.78703,-122.4199,0,HEMLOCK ST,POLK ST,NS,SE,BZ,0,20230512124615,14816786,141,None,POINT (-122.4199 37.78703),50,50,4,3,21
42460,Sacramento St&Hyde St NE-NS/BZ,SACOHYD0,SACOHYDE,6300,37.79199,-122.41749,0,HYDE ST,SACRAMENTO ST,NS,NE,BZ,0,20230512124615,14815069,141,None,POINT (-122.41749 37.79199),16,16,6,3,21
41640,Eucalyptus Dr&19TH Ave SE-FS/BZ,EUCA19A1,EUCA19AV,4545,37.731041,-122.474538,0,19TH AVE,EUCALYPTUS DR,FS,SE,BZ,0,20230512124615,14810835,141,None,POINT (-122.47454 37.73104),41,41,10,8,41
43146,Jackson St&Leavenworth St NE-NS,JACKLEA0,JACKLEAV,5154,37.794854,-122.416366,0,LEAVENWORTH ST,JACKSON ST,NS,NE,None,0,20230512124615,14814291,141,None,POINT (-122.41637 37.794853),16,16,6,3,21
42339,17th St&Cole St NE-NS/PS,17STCOLE,17STCOLE,3310,37.76168,-122.44898,0,COLE ST,17TH ST,NS,NE,None,0,20230512124615,14815017,141,None,POINT (-122.44898 37.76168),114,114,7,11,3
43112,Balboa St&19TH Ave NE-NS/BZ,BBOA19A0,BBOA19AV,3045,37.776662,-122.477912,0,19TH AVE,BALBOA ST,NS,NE,BZ,1,20230512124615,14818844,141,None,POINT (-122.47791 37.77666),5,5,8,4,29
43774,Fillmore St&Lombard St SE-NS/BZ,FILLLOM1,FILLLOMB,4626,37.799707,-122.435952,0,LOMBARD ST,FILLMORE ST,NS,SE,BZ,0,20230512124615,14814869,141,None,POINT (-122.43595 37.799706),15,15,4,6,13
41471,Geary Blvd&Spruce St NE-NS/BZ,GEARSPR0,GEARSPRC,4762,37.781849,-122.453075,0,SPRUCE ST,GEARY BLVD,NS,NE,BZ,0,20230512124615,14810674,141,None,POINT (-122.45307 37.78185),11,11,8,6,31
43689,Pacific Ave&Polk St NE-NS/BZ,PACFPOL1,PACFPOLK,5850,37.795114,-122.42148,0,POLK ST,PACIFIC AVE,NS,NE,None,1,20230512124615,14816221,141,None,POINT (-122.42148 37.795113),105,105,4,3,32
43235,Steiner St&Vallejo St SE-NS/PS,STEIVAL1,STEIVALL,6492,37.794911,-122.436669,0,VALLEJO ST,STEINER ST,NS,SE,None,0,20230512124615,14814316,141,None,POINT (-122.43667 37.79491),102,102,4,6,30
41656,Leavenworth St&Geary St SE-NS/BZ,LEAVGEA1,LEAVGEAR,4865,37.78643,-122.4147,0,GEARY BLVD,LEAVENWORTH ST,NS,SE,BZ,1,20230512124615,14810866,141,None,POINT (-122.4147 37.78643),20,20,5,10,36
41925,Powell Station Inbound,POWL ST1,POWL STA,5417,37.784653,-122.407086,0,ELLIS ST,MARKET ST,,,,0,20230512124615,14812026,141,None,POINT (-122.40709 37.784653),32,32,5,10,34
40946,46 Addison St E-MB/SB,ADDIH460,ADDIH 46,3613,37.737735,-122.431009,0,None,ADDISON ST,MB,EA,None,0,20230512124615,14809244,141,None,POINT (-122.43101 37.737736),59,59,9,5,10
43692,Geary Blvd&17TH Ave NE-NS/BZ,GEAR17A0,GEAR17AV,4263,37.780597,-122.476045,0,17TH AVE,GEARY BLVD,NS,NE,BZ,0,20230512124615,14816228,141,None,POINT (-122.47604 37.780598),5,5,8,4,29
43783,Market St&Beale St E-FS/BZ,MRKTBEA1,MRKTBEAL,5658,37.792572,-122.397016,0,BEALE ST,MARKET ST,FS,EA,BZ,1,20230512124615,14816389,141,None,POINT (-122.39702 37.792572),108,108,6,10,8
42743,Union St&Larkin St NE-NS/BZ,UNINLAR0,UNINLARK,6766,37.799066,-122.420607,0,LARKIN ST,UNION ST,NS,NE,BZ,0,20230512124615,14818393,141,None,POINT (-122.42061 37.799065),107,107,6,6,32
